<?xml version="1.0" encoding="UTF-8"?>
<gpx version="1.1" creator="RouteOptimizer" xmlns="http://www.topografix.com/GPX/1/1">
  <metadata>
    <time>2025-11-22T16:42:21Z</time>
    <name>福井市</name>
  </metadata>
  <trk>
    <trkseg>
      <trkpt lat="35.9609785" lon="136.3465977">
        <name>赤谷町</name>
        <desc>赤谷町, 福井市, 福井県, 916-1235, 日本</desc>
        <extensions>
          <quarter>赤谷町</quarter>
          <city>福井市</city>
          <province>福井県</province>
          <ISO3166-2-lvl4>JP-18</ISO3166-2-lvl4>
          <postcode>916-1235</postcode>
          <country>日本</country>
          <country_code>jp</country_code>
        </extensions>
      </trkpt>
      <trkpt lat="35.9473433" lon="136.351093">
        <name>折立町</name>
        <desc>折立町, 福井市, 福井県, 日本</desc>
        <extensions>
          <quarter>折立町</quarter>
          <city>福井市</city>
          <province>福井県</province>
          <ISO3166-2-lvl4>JP-18</ISO3166-2-lvl4>
          <country>日本</country>
          <country_code>jp</country_code>
        </extensions>
      </trkpt>
      <trkpt lat="35.9494712" lon="136.3576054">
        <name>横越町</name>
        <desc>横越町, 福井市, 福井県, 日本</desc>
        <extensions>
          <quarter>横越町</quarter>
          <city>福井市</city>
          <province>福井県</province>
          <ISO3166-2-lvl4>JP-18</ISO3166-2-lvl4>
          <country>日本</country>
          <country_code>jp</country_code>
        </extensions>
      </trkpt>
      <trkpt lat="35.9574266" lon="136.3683343">
        <name>東河原町</name>
        <desc>東河原町, 福井市, 福井県, 日本</desc>
        <extensions>
          <quarter>東河原町</quarter>
          <city>福井市</city>
          <province>福井県</province>
          <ISO3166-2-lvl4>JP-18</ISO3166-2-lvl4>
          <country>日本</country>
          <country_code>jp</country_code>
        </extensions>
      </trkpt>
      <trkpt lat="35.9628629" lon="136.3677227">
        <name>西河原町</name>
        <desc>武生美山線, 西河原町, 福井市, 福井県, 日本</desc>
        <extensions>
          <road>武生美山線</road>
          <quarter>西河原町</quarter>
          <city>福井市</city>
          <province>福井県</province>
          <ISO3166-2-lvl4>JP-18</ISO3166-2-lvl4>
          <country>日本</country>
          <country_code>jp</country_code>
        </extensions>
      </trkpt>
      <trkpt lat="35.9633058" lon="136.3950491">
        <name>西市布町</name>
        <desc>国道476号, 西市布町, 福井市, 福井県, 日本</desc>
        <extensions>
          <road>国道476号</road>
          <quarter>西市布町</quarter>
          <city>福井市</city>
          <province>福井県</province>
          <ISO3166-2-lvl4>JP-18</ISO3166-2-lvl4>
          <country>日本</country>
          <country_code>jp</country_code>
        </extensions>
      </trkpt>
      <trkpt lat="35.9635055" lon="136.403203">
        <name>小当見町</name>
        <desc>小当見町, 福井市, 福井県, 日本</desc>
        <extensions>
          <quarter>小当見町</quarter>
          <city>福井市</city>
          <province>福井県</province>
          <ISO3166-2-lvl4>JP-18</ISO3166-2-lvl4>
          <country>日本</country>
          <country_code>jp</country_code>
        </extensions>
      </trkpt>
      <trkpt lat="35.9606746" lon="136.4163458">
        <name>中手町</name>
        <desc>中手町, 福井市, 福井県, 日本</desc>
        <extensions>
          <quarter>中手町</quarter>
          <city>福井市</city>
          <province>福井県</province>
          <ISO3166-2-lvl4>JP-18</ISO3166-2-lvl4>
          <country>日本</country>
          <country_code>jp</country_code>
        </extensions>
      </trkpt>
      <trkpt lat="35.9663625" lon="136.4246392">
        <name>南野津又町</name>
        <desc>南野津又町, 福井市, 福井県, 日本</desc>
        <extensions>
          <quarter>南野津又町</quarter>
          <city>福井市</city>
          <province>福井県</province>
          <ISO3166-2-lvl4>JP-18</ISO3166-2-lvl4>
          <country>日本</country>
          <country_code>jp</country_code>
        </extensions>
      </trkpt>
      <trkpt lat="35.9549949" lon="136.4317095">
        <name>神当部町</name>
        <desc>神当部町, 福井市, 福井県, 日本</desc>
        <extensions>
          <quarter>神当部町</quarter>
          <city>福井市</city>
          <province>福井県</province>
          <ISO3166-2-lvl4>JP-18</ISO3166-2-lvl4>
          <country>日本</country>
          <country_code>jp</country_code>
        </extensions>
      </trkpt>
      <trkpt lat="35.948429" lon="136.4405823">
        <name>味見河内町</name>
        <desc>味見河内町, 福井市, 福井県, 912-0071, 日本</desc>
        <extensions>
          <quarter>味見河内町</quarter>
          <city>福井市</city>
          <province>福井県</province>
          <ISO3166-2-lvl4>JP-18</ISO3166-2-lvl4>
          <postcode>912-0071</postcode>
          <country>日本</country>
          <country_code>jp</country_code>
        </extensions>
      </trkpt>
      <trkpt lat="35.982243" lon="136.430819">
        <name>南西俣町</name>
        <desc>南西俣町, 福井市, 福井県, 日本</desc>
        <extensions>
          <quarter>南西俣町</quarter>
          <city>福井市</city>
          <province>福井県</province>
          <ISO3166-2-lvl4>JP-18</ISO3166-2-lvl4>
          <country>日本</country>
          <country_code>jp</country_code>
        </extensions>
      </trkpt>
      <trkpt lat="35.986306" lon="136.4359259">
        <name>東俣町</name>
        <desc>東俣町, 福井市, 福井県, 912-0071, 日本</desc>
        <extensions>
          <quarter>東俣町</quarter>
          <city>福井市</city>
          <province>福井県</province>
          <ISO3166-2-lvl4>JP-18</ISO3166-2-lvl4>
          <postcode>912-0071</postcode>
          <country>日本</country>
          <country_code>jp</country_code>
        </extensions>
      </trkpt>
      <trkpt lat="35.9995612" lon="136.4338016">
        <name>計石町</name>
        <desc>計石町, 福井市, 福井県, 912-0071, 日本</desc>
        <extensions>
          <quarter>計石町</quarter>
          <city>福井市</city>
          <province>福井県</province>
          <ISO3166-2-lvl4>JP-18</ISO3166-2-lvl4>
          <postcode>912-0071</postcode>
          <country>日本</country>
          <country_code>jp</country_code>
        </extensions>
      </trkpt>
      <trkpt lat="35.9942229" lon="136.4156806">
        <name>南宮地町</name>
        <desc>南宮地町, 福井市, 福井県, 日本</desc>
        <extensions>
          <quarter>南宮地町</quarter>
          <city>福井市</city>
          <province>福井県</province>
          <ISO3166-2-lvl4>JP-18</ISO3166-2-lvl4>
          <country>日本</country>
          <country_code>jp</country_code>
        </extensions>
      </trkpt>
      <trkpt lat="35.9931205" lon="136.444906">
        <name>東川上町</name>
        <desc>大宮-犬山バイパス, 東川上町, 福井市, 福井県, 912-0071, 日本</desc>
        <extensions>
          <road>大宮-犬山バイパス</road>
          <quarter>東川上町</quarter>
          <city>福井市</city>
          <province>福井県</province>
          <ISO3166-2-lvl4>JP-18</ISO3166-2-lvl4>
          <postcode>912-0071</postcode>
          <country>日本</country>
          <country_code>jp</country_code>
        </extensions>
      </trkpt>
      <trkpt lat="36.0047256" lon="136.4316559">
        <name>野波町</name>
        <desc>野波町, 福井市, 福井県, 日本</desc>
        <extensions>
          <quarter>野波町</quarter>
          <city>福井市</city>
          <province>福井県</province>
          <ISO3166-2-lvl4>JP-18</ISO3166-2-lvl4>
          <country>日本</country>
          <country_code>jp</country_code>
        </extensions>
      </trkpt>
      <trkpt lat="36.0015402" lon="136.4140069">
        <name>大宮町</name>
        <desc>大宮町, 福井市, 福井県, 日本</desc>
        <extensions>
          <quarter>大宮町</quarter>
          <city>福井市</city>
          <province>福井県</province>
          <ISO3166-2-lvl4>JP-18</ISO3166-2-lvl4>
          <country>日本</country>
          <country_code>jp</country_code>
        </extensions>
      </trkpt>
      <trkpt lat="36.0291627" lon="136.4215493">
        <name>所谷町</name>
        <desc>篠尾勝山線, 所谷町, 福井市, 福井県, 日本</desc>
        <extensions>
          <road>篠尾勝山線</road>
          <quarter>所谷町</quarter>
          <city>福井市</city>
          <province>福井県</province>
          <ISO3166-2-lvl4>JP-18</ISO3166-2-lvl4>
          <country>日本</country>
          <country_code>jp</country_code>
        </extensions>
      </trkpt>
      <trkpt lat="36.0291019" lon="136.4285016">
        <name>皿谷町</name>
        <desc>篠尾勝山線, 皿谷町, 福井市, 福井県, 日本</desc>
        <extensions>
          <road>篠尾勝山線</road>
          <quarter>皿谷町</quarter>
          <city>福井市</city>
          <province>福井県</province>
          <ISO3166-2-lvl4>JP-18</ISO3166-2-lvl4>
          <country>日本</country>
          <country_code>jp</country_code>
        </extensions>
      </trkpt>
      <trkpt lat="36.0287028" lon="136.4045334">
        <name>西中町</name>
        <desc>篠尾勝山線, 西中町, 福井市, 福井県, 日本</desc>
        <extensions>
          <road>篠尾勝山線</road>
          <quarter>西中町</quarter>
          <city>福井市</city>
          <province>福井県</province>
          <ISO3166-2-lvl4>JP-18</ISO3166-2-lvl4>
          <country>日本</country>
          <country_code>jp</country_code>
        </extensions>
      </trkpt>
      <trkpt lat="36.0290933" lon="136.3966584">
        <name>美山大谷町</name>
        <desc>美山大谷町, 福井市, 福井県, 910-1228, 日本</desc>
        <extensions>
          <quarter>美山大谷町</quarter>
          <city>福井市</city>
          <province>福井県</province>
          <ISO3166-2-lvl4>JP-18</ISO3166-2-lvl4>
          <postcode>910-1228</postcode>
          <country>日本</country>
          <country_code>jp</country_code>
        </extensions>
      </trkpt>
      <trkpt lat="36.0279566" lon="136.3898349">
        <name>篭谷町</name>
        <desc>篭谷町, 福井市, 福井県, 910-1228, 日本</desc>
        <extensions>
          <quarter>篭谷町</quarter>
          <city>福井市</city>
          <province>福井県</province>
          <ISO3166-2-lvl4>JP-18</ISO3166-2-lvl4>
          <postcode>910-1228</postcode>
          <country>日本</country>
          <country_code>jp</country_code>
        </extensions>
      </trkpt>
      <trkpt lat="36.021579" lon="136.3778829">
        <name>吉山町</name>
        <desc>篠尾勝山線, 吉山町, 福井市, 福井県, 910-1228, 日本</desc>
        <extensions>
          <road>篠尾勝山線</road>
          <quarter>吉山町</quarter>
          <city>福井市</city>
          <province>福井県</province>
          <ISO3166-2-lvl4>JP-18</ISO3166-2-lvl4>
          <postcode>910-1228</postcode>
          <country>日本</country>
          <country_code>jp</country_code>
        </extensions>
      </trkpt>
      <trkpt lat="36.0081885" lon="136.3852966">
        <name>薬師町</name>
        <desc>国道158号, 薬師町, 福井市, 福井県, 日本</desc>
        <extensions>
          <road>国道158号</road>
          <quarter>薬師町</quarter>
          <city>福井市</city>
          <province>福井県</province>
          <ISO3166-2-lvl4>JP-18</ISO3166-2-lvl4>
          <country>日本</country>
          <country_code>jp</country_code>
        </extensions>
      </trkpt>
      <trkpt lat="36.0127535" lon="136.4003169">
        <name>仁位町</name>
        <desc>仁位町, 福井市, 福井県, 日本</desc>
        <extensions>
          <quarter>仁位町</quarter>
          <city>福井市</city>
          <province>福井県</province>
          <ISO3166-2-lvl4>JP-18</ISO3166-2-lvl4>
          <country>日本</country>
          <country_code>jp</country_code>
        </extensions>
      </trkpt>
      <trkpt lat="36.0036667" lon="136.4060783">
        <name>縫原町</name>
        <desc>縫原町, 福井市, 福井県, 日本</desc>
        <extensions>
          <quarter>縫原町</quarter>
          <city>福井市</city>
          <province>福井県</province>
          <ISO3166-2-lvl4>JP-18</ISO3166-2-lvl4>
          <country>日本</country>
          <country_code>jp</country_code>
        </extensions>
      </trkpt>
      <trkpt lat="35.9880422" lon="136.3919699">
        <name>間戸町</name>
        <desc>間戸町, 福井市, 福井県, 日本</desc>
        <extensions>
          <quarter>間戸町</quarter>
          <city>福井市</city>
          <province>福井県</province>
          <ISO3166-2-lvl4>JP-18</ISO3166-2-lvl4>
          <country>日本</country>
          <country_code>jp</country_code>
        </extensions>
      </trkpt>
      <trkpt lat="35.9922872" lon="136.3745355">
        <name>椙谷町</name>
        <desc>椙谷町, 福井市, 福井県, 日本</desc>
        <extensions>
          <quarter>椙谷町</quarter>
          <city>福井市</city>
          <province>福井県</province>
          <ISO3166-2-lvl4>JP-18</ISO3166-2-lvl4>
          <country>日本</country>
          <country_code>jp</country_code>
        </extensions>
      </trkpt>
      <trkpt lat="35.99036" lon="136.3682914">
        <name>小宇坂町</name>
        <desc>小宇坂町, 福井市, 福井県, 日本</desc>
        <extensions>
          <quarter>小宇坂町</quarter>
          <city>福井市</city>
          <province>福井県</province>
          <ISO3166-2-lvl4>JP-18</ISO3166-2-lvl4>
          <country>日本</country>
          <country_code>jp</country_code>
        </extensions>
      </trkpt>
      <trkpt lat="35.9913844" lon="136.3611889">
        <name>小宇坂島町</name>
        <desc>小宇坂島町, 福井市, 福井県, 日本</desc>
        <extensions>
          <quarter>小宇坂島町</quarter>
          <city>福井市</city>
          <province>福井県</province>
          <ISO3166-2-lvl4>JP-18</ISO3166-2-lvl4>
          <country>日本</country>
          <country_code>jp</country_code>
        </extensions>
      </trkpt>
      <trkpt lat="35.9881638" lon="136.3571119">
        <name>蔵作町</name>
        <desc>蔵作町, 福井市, 福井県, 日本</desc>
        <extensions>
          <quarter>蔵作町</quarter>
          <city>福井市</city>
          <province>福井県</province>
          <ISO3166-2-lvl4>JP-18</ISO3166-2-lvl4>
          <country>日本</country>
          <country_code>jp</country_code>
        </extensions>
      </trkpt>
      <trkpt lat="35.9980422" lon="136.356318">
        <name>朝谷町</name>
        <desc>朝谷町, 福井市, 福井県, 日本</desc>
        <extensions>
          <quarter>朝谷町</quarter>
          <city>福井市</city>
          <province>福井県</province>
          <ISO3166-2-lvl4>JP-18</ISO3166-2-lvl4>
          <country>日本</country>
          <country_code>jp</country_code>
        </extensions>
      </trkpt>
      <trkpt lat="35.9999692" lon="136.3636565">
        <name>美山町</name>
        <desc>国道158号, 美山町, 福井市, 福井県, 910-2399, 日本</desc>
        <extensions>
          <road>国道158号</road>
          <quarter>美山町</quarter>
          <city>福井市</city>
          <province>福井県</province>
          <ISO3166-2-lvl4>JP-18</ISO3166-2-lvl4>
          <postcode>910-2399</postcode>
          <country>日本</country>
          <country_code>jp</country_code>
        </extensions>
      </trkpt>
      <trkpt lat="36.0010021" lon="136.3729262">
        <name>境寺町</name>
        <desc>境寺町, 福井市, 福井県, 日本</desc>
        <extensions>
          <quarter>境寺町</quarter>
          <city>福井市</city>
          <province>福井県</province>
          <ISO3166-2-lvl4>JP-18</ISO3166-2-lvl4>
          <country>日本</country>
          <country_code>jp</country_code>
        </extensions>
      </trkpt>
      <trkpt lat="35.9772421" lon="136.375426">
        <name>東天田町</name>
        <desc>東天田町, 福井市, 福井県, 日本</desc>
        <extensions>
          <quarter>東天田町</quarter>
          <city>福井市</city>
          <province>福井県</province>
          <ISO3166-2-lvl4>JP-18</ISO3166-2-lvl4>
          <country>日本</country>
          <country_code>jp</country_code>
        </extensions>
      </trkpt>
      <trkpt lat="35.9771727" lon="136.3707912">
        <name>西天田町</name>
        <desc>武生美山線, 西天田町, 福井市, 福井県, 910-2399, 日本</desc>
        <extensions>
          <road>武生美山線</road>
          <quarter>西天田町</quarter>
          <city>福井市</city>
          <province>福井県</province>
          <ISO3166-2-lvl4>JP-18</ISO3166-2-lvl4>
          <postcode>910-2399</postcode>
          <country>日本</country>
          <country_code>jp</country_code>
        </extensions>
      </trkpt>
      <trkpt lat="36.0046561" lon="136.3612318">
        <name>品ケ瀬町</name>
        <desc>品ケ瀬町, 福井市, 福井県, 910-2399, 日本</desc>
        <extensions>
          <quarter>品ケ瀬町</quarter>
          <city>福井市</city>
          <province>福井県</province>
          <ISO3166-2-lvl4>JP-18</ISO3166-2-lvl4>
          <postcode>910-2399</postcode>
          <country>日本</country>
          <country_code>jp</country_code>
        </extensions>
      </trkpt>
      <trkpt lat="36.0158169" lon="136.3517475">
        <name>小和清水町</name>
        <desc>国道158号, 市波町, 福井市, 福井県, 910-2222, 日本</desc>
        <extensions>
          <road>国道158号</road>
          <quarter>市波町</quarter>
          <city>福井市</city>
          <province>福井県</province>
          <ISO3166-2-lvl4>JP-18</ISO3166-2-lvl4>
          <postcode>910-2222</postcode>
          <country>日本</country>
          <country_code>jp</country_code>
        </extensions>
      </trkpt>
      <trkpt lat="36.0192707" lon="136.3546657">
        <name>獺ケ口町</name>
        <desc>篠尾勝山線, 高田町, 福井市, 福井県, 910-2151, 日本</desc>
        <extensions>
          <road>篠尾勝山線</road>
          <quarter>高田町</quarter>
          <city>福井市</city>
          <province>福井県</province>
          <ISO3166-2-lvl4>JP-18</ISO3166-2-lvl4>
          <postcode>910-2151</postcode>
          <country>日本</country>
          <country_code>jp</country_code>
        </extensions>
      </trkpt>
      <trkpt lat="36.017648" lon="136.3394523">
        <name>大久保町</name>
        <desc>篠尾勝山線, 高田町, 福井市, 福井県, 910-2151, 日本</desc>
        <extensions>
          <road>篠尾勝山線</road>
          <quarter>高田町</quarter>
          <city>福井市</city>
          <province>福井県</province>
          <ISO3166-2-lvl4>JP-18</ISO3166-2-lvl4>
          <postcode>910-2151</postcode>
          <country>日本</country>
          <country_code>jp</country_code>
        </extensions>
      </trkpt>
      <trkpt lat="36.0239912" lon="136.3361692">
        <name>福島町</name>
        <desc>福島町, 福井市, 福井県, 910-1228, 日本</desc>
        <extensions>
          <quarter>福島町</quarter>
          <city>福井市</city>
          <province>福井県</province>
          <ISO3166-2-lvl4>JP-18</ISO3166-2-lvl4>
          <postcode>910-1228</postcode>
          <country>日本</country>
          <country_code>jp</country_code>
        </extensions>
      </trkpt>
      <trkpt lat="36.0199996" lon="136.3280797">
        <name>市波町</name>
        <desc>市波町, 福井市, 福井県, 910-2151, 日本</desc>
        <extensions>
          <quarter>市波町</quarter>
          <city>福井市</city>
          <province>福井県</province>
          <ISO3166-2-lvl4>JP-18</ISO3166-2-lvl4>
          <postcode>910-2151</postcode>
          <country>日本</country>
          <country_code>jp</country_code>
        </extensions>
      </trkpt>
      <trkpt lat="36.0252755" lon="136.3209236">
        <name>高田町</name>
        <desc>篠尾勝山線, 高田町, 福井市, 福井県, 910-2151, 日本</desc>
        <extensions>
          <road>篠尾勝山線</road>
          <quarter>高田町</quarter>
          <city>福井市</city>
          <province>福井県</province>
          <ISO3166-2-lvl4>JP-18</ISO3166-2-lvl4>
          <postcode>910-2151</postcode>
          <country>日本</country>
          <country_code>jp</country_code>
        </extensions>
      </trkpt>
      <trkpt lat="36.0208327" lon="136.320076">
        <name>田尻町</name>
        <desc>国道158号, 市波町, 福井市, 福井県, 910-2222, 日本</desc>
        <extensions>
          <road>国道158号</road>
          <quarter>市波町</quarter>
          <city>福井市</city>
          <province>福井県</province>
          <ISO3166-2-lvl4>JP-18</ISO3166-2-lvl4>
          <postcode>910-2222</postcode>
          <country>日本</country>
          <country_code>jp</country_code>
        </extensions>
      </trkpt>
      <trkpt lat="36.012849" lon="136.334281">
        <name>奈良瀬町</name>
        <desc>奈良瀬町, 福井市, 福井県, 910-2151, 日本</desc>
        <extensions>
          <quarter>奈良瀬町</quarter>
          <city>福井市</city>
          <province>福井県</province>
          <ISO3166-2-lvl4>JP-18</ISO3166-2-lvl4>
          <postcode>910-2151</postcode>
          <country>日本</country>
          <country_code>jp</country_code>
        </extensions>
      </trkpt>
      <trkpt lat="36.003632" lon="136.3265884">
        <name>宇坂別所町</name>
        <desc>宇坂別所町, 福井市, 福井県, 910-2151, 日本</desc>
        <extensions>
          <quarter>宇坂別所町</quarter>
          <city>福井市</city>
          <province>福井県</province>
          <ISO3166-2-lvl4>JP-18</ISO3166-2-lvl4>
          <postcode>910-2151</postcode>
          <country>日本</country>
          <country_code>jp</country_code>
        </extensions>
      </trkpt>
      <trkpt lat="36.0059493" lon="136.3170719">
        <name>三万谷町</name>
        <desc>三万谷町, 福井市, 福井県, 910-2151, 日本</desc>
        <extensions>
          <quarter>三万谷町</quarter>
          <city>福井市</city>
          <province>福井県</province>
          <ISO3166-2-lvl4>JP-18</ISO3166-2-lvl4>
          <postcode>910-2151</postcode>
          <country>日本</country>
          <country_code>jp</country_code>
        </extensions>
      </trkpt>
      <trkpt lat="36.0385502" lon="136.3309228">
        <name>宇坂大谷町</name>
        <desc>国道364号, 宇坂大谷町, 福井市, 福井県, 910-1228, 日本</desc>
        <extensions>
          <road>国道364号</road>
          <quarter>宇坂大谷町</quarter>
          <city>福井市</city>
          <province>福井県</province>
          <ISO3166-2-lvl4>JP-18</ISO3166-2-lvl4>
          <postcode>910-1228</postcode>
          <country>日本</country>
          <country_code>jp</country_code>
        </extensions>
      </trkpt>
      <trkpt lat="36.0267071" lon="136.2984359">
        <name>高尾町</name>
        <desc>高尾町, 福井市, 福井県, 910-2151, 日本</desc>
        <extensions>
          <quarter>高尾町</quarter>
          <city>福井市</city>
          <province>福井県</province>
          <ISO3166-2-lvl4>JP-18</ISO3166-2-lvl4>
          <postcode>910-2151</postcode>
          <country>日本</country>
          <country_code>jp</country_code>
        </extensions>
      </trkpt>
      <trkpt lat="36.0279826" lon="136.2933183">
        <name>篠尾町</name>
        <desc>高尾町, 福井市, 福井県, 910-2151, 日本</desc>
        <extensions>
          <quarter>高尾町</quarter>
          <city>福井市</city>
          <province>福井県</province>
          <ISO3166-2-lvl4>JP-18</ISO3166-2-lvl4>
          <postcode>910-2151</postcode>
          <country>日本</country>
          <country_code>jp</country_code>
        </extensions>
      </trkpt>
      <trkpt lat="36.0199736" lon="136.2998736">
        <name>前波町</name>
        <desc>前波町, 福井市, 福井県, 910-2151, 日本</desc>
        <extensions>
          <quarter>前波町</quarter>
          <city>福井市</city>
          <province>福井県</province>
          <ISO3166-2-lvl4>JP-18</ISO3166-2-lvl4>
          <postcode>910-2151</postcode>
          <country>日本</country>
          <country_code>jp</country_code>
        </extensions>
      </trkpt>
      <trkpt lat="36.0175786" lon="136.2964404">
        <name>安波賀中島町</name>
        <desc>篠尾勝山線, 安波賀町, 福井市, 福井県, 910-2151, 日本</desc>
        <extensions>
          <road>篠尾勝山線</road>
          <quarter>安波賀町</quarter>
          <city>福井市</city>
          <province>福井県</province>
          <ISO3166-2-lvl4>JP-18</ISO3166-2-lvl4>
          <postcode>910-2151</postcode>
          <country>日本</country>
          <country_code>jp</country_code>
        </extensions>
      </trkpt>
      <trkpt lat="36.0173356" lon="136.2900031">
        <name>脇三ケ町</name>
        <desc>脇三ケ町, 福井市, 福井県, 910-2151, 日本</desc>
        <extensions>
          <quarter>脇三ケ町</quarter>
          <city>福井市</city>
          <province>福井県</province>
          <ISO3166-2-lvl4>JP-18</ISO3166-2-lvl4>
          <postcode>910-2151</postcode>
          <country>日本</country>
          <country_code>jp</country_code>
        </extensions>
      </trkpt>
      <trkpt lat="36.0106012" lon="136.2835872">
        <name>南山町</name>
        <desc>南山町, 福井市, 福井県, 910-2151, 日本</desc>
        <extensions>
          <quarter>南山町</quarter>
          <city>福井市</city>
          <province>福井県</province>
          <ISO3166-2-lvl4>JP-18</ISO3166-2-lvl4>
          <postcode>910-2151</postcode>
          <country>日本</country>
          <country_code>jp</country_code>
        </extensions>
      </trkpt>
      <trkpt lat="36.0176067" lon="136.278078">
        <name>東郷美里町</name>
        <desc>東郷美里町, 福井市, 福井県, 910-2151, 日本</desc>
        <extensions>
          <neighbourhood>東郷美里町</neighbourhood>
          <city>福井市</city>
          <province>福井県</province>
          <ISO3166-2-lvl4>JP-18</ISO3166-2-lvl4>
          <postcode>910-2151</postcode>
          <country>日本</country>
          <country_code>jp</country_code>
        </extensions>
      </trkpt>
      <trkpt lat="36.0197393" lon="136.2778151">
        <name>上毘沙門町</name>
        <desc>上毘沙門町, 福井市, 福井県, 910-2151, 日本</desc>
        <extensions>
          <quarter>上毘沙門町</quarter>
          <city>福井市</city>
          <province>福井県</province>
          <ISO3166-2-lvl4>JP-18</ISO3166-2-lvl4>
          <postcode>910-2151</postcode>
          <country>日本</country>
          <country_code>jp</country_code>
        </extensions>
      </trkpt>
      <trkpt lat="36.0122935" lon="136.2993371">
        <name>安波賀町</name>
        <desc>篠尾勝山線, 安波賀町, 福井市, 福井県, 910-2151, 日本</desc>
        <extensions>
          <road>篠尾勝山線</road>
          <quarter>安波賀町</quarter>
          <city>福井市</city>
          <province>福井県</province>
          <ISO3166-2-lvl4>JP-18</ISO3166-2-lvl4>
          <postcode>910-2151</postcode>
          <country>日本</country>
          <country_code>jp</country_code>
        </extensions>
      </trkpt>
      <trkpt lat="36.0139772" lon="136.3045192">
        <name>宿布町</name>
        <desc>前波-田尻バイパス, 宿布町, 福井市, 福井県, 910-2151, 日本</desc>
        <extensions>
          <road>前波-田尻バイパス</road>
          <quarter>宿布町</quarter>
          <city>福井市</city>
          <province>福井県</province>
          <ISO3166-2-lvl4>JP-18</ISO3166-2-lvl4>
          <postcode>910-2151</postcode>
          <country>日本</country>
          <country_code>jp</country_code>
        </extensions>
      </trkpt>
      <trkpt lat="36.0026946" lon="136.2988972">
        <name>城戸ノ内町</name>
        <desc>城戸ノ内町, 福井市, 福井県, 910-2151, 日本</desc>
        <extensions>
          <quarter>城戸ノ内町</quarter>
          <city>福井市</city>
          <province>福井県</province>
          <ISO3166-2-lvl4>JP-18</ISO3166-2-lvl4>
          <postcode>910-2151</postcode>
          <country>日本</country>
          <country_code>jp</country_code>
        </extensions>
      </trkpt>
      <trkpt lat="36.0325551" lon="136.277504">
        <name>成願寺町</name>
        <desc>成願寺町, 福井市, 福井県, 910-2151, 日本</desc>
        <extensions>
          <quarter>成願寺町</quarter>
          <city>福井市</city>
          <province>福井県</province>
          <ISO3166-2-lvl4>JP-18</ISO3166-2-lvl4>
          <postcode>910-2151</postcode>
          <country>日本</country>
          <country_code>jp</country_code>
        </extensions>
      </trkpt>
      <trkpt lat="36.040346" lon="136.2778795">
        <name>次郎丸町</name>
        <desc>次郎丸町, 福井市, 福井県, 918-8237, 日本</desc>
        <extensions>
          <quarter>次郎丸町</quarter>
          <city>福井市</city>
          <province>福井県</province>
          <ISO3166-2-lvl4>JP-18</ISO3166-2-lvl4>
          <postcode>918-8237</postcode>
          <country>日本</country>
          <country_code>jp</country_code>
        </extensions>
      </trkpt>
      <trkpt lat="36.0424281" lon="136.2787914">
        <name>大畑町</name>
        <desc>大畑町, 福井市, 福井県, 918-8237, 日本</desc>
        <extensions>
          <quarter>大畑町</quarter>
          <city>福井市</city>
          <province>福井県</province>
          <ISO3166-2-lvl4>JP-18</ISO3166-2-lvl4>
          <postcode>918-8237</postcode>
          <country>日本</country>
          <country_code>jp</country_code>
        </extensions>
      </trkpt>
      <trkpt lat="36.0426016" lon="136.2837374">
        <name>宮地町</name>
        <desc>宮地町, 福井市, 福井県, 910-2151, 日本</desc>
        <extensions>
          <quarter>宮地町</quarter>
          <city>福井市</city>
          <province>福井県</province>
          <ISO3166-2-lvl4>JP-18</ISO3166-2-lvl4>
          <postcode>910-2151</postcode>
          <country>日本</country>
          <country_code>jp</country_code>
        </extensions>
      </trkpt>
      <trkpt lat="36.0446749" lon="136.2878144">
        <name>花野谷町</name>
        <desc>花野谷町, 福井市, 福井県, 910-2151, 日本</desc>
        <extensions>
          <quarter>花野谷町</quarter>
          <city>福井市</city>
          <province>福井県</province>
          <ISO3166-2-lvl4>JP-18</ISO3166-2-lvl4>
          <postcode>910-2151</postcode>
          <country>日本</country>
          <country_code>jp</country_code>
        </extensions>
      </trkpt>
      <trkpt lat="36.052586" lon="136.2770426">
        <name>河水町</name>
        <desc>越知神社, 大畑松岡線, 河水町, 福井市, 福井県, 918-8237, 日本</desc>
        <extensions>
          <amenity>越知神社</amenity>
          <road>大畑松岡線</road>
          <quarter>河水町</quarter>
          <city>福井市</city>
          <province>福井県</province>
          <ISO3166-2-lvl4>JP-18</ISO3166-2-lvl4>
          <postcode>918-8237</postcode>
          <country>日本</country>
          <country_code>jp</country_code>
        </extensions>
      </trkpt>
      <trkpt lat="36.0451173" lon="136.2662923">
        <name>荒木別所町</name>
        <desc>稲津松岡線, 荒木別所町, 福井市, 福井県, 918-8237, 日本</desc>
        <extensions>
          <road>稲津松岡線</road>
          <quarter>荒木別所町</quarter>
          <city>福井市</city>
          <province>福井県</province>
          <ISO3166-2-lvl4>JP-18</ISO3166-2-lvl4>
          <postcode>918-8237</postcode>
          <country>日本</country>
          <country_code>jp</country_code>
        </extensions>
      </trkpt>
      <trkpt lat="36.0405108" lon="136.2669253">
        <name>荒木町</name>
        <desc>荒木町, 福井市, 福井県, 918-8237, 日本</desc>
        <extensions>
          <quarter>荒木町</quarter>
          <city>福井市</city>
          <province>福井県</province>
          <ISO3166-2-lvl4>JP-18</ISO3166-2-lvl4>
          <postcode>918-8237</postcode>
          <country>日本</country>
          <country_code>jp</country_code>
        </extensions>
      </trkpt>
      <trkpt lat="36.0382379" lon="136.2631917">
        <name>合島町</name>
        <desc>合島町, 福井市, 福井県, 918-8237, 日本</desc>
        <extensions>
          <quarter>合島町</quarter>
          <city>福井市</city>
          <province>福井県</province>
          <ISO3166-2-lvl4>JP-18</ISO3166-2-lvl4>
          <postcode>918-8237</postcode>
          <country>日本</country>
          <country_code>jp</country_code>
        </extensions>
      </trkpt>
      <trkpt lat="36.0349497" lon="136.2708413">
        <name>荒木新保町</name>
        <desc>荒木新保町, 福井市, 福井県, 918-8237, 日本</desc>
        <extensions>
          <quarter>荒木新保町</quarter>
          <city>福井市</city>
          <province>福井県</province>
          <ISO3166-2-lvl4>JP-18</ISO3166-2-lvl4>
          <postcode>918-8237</postcode>
          <country>日本</country>
          <country_code>jp</country_code>
        </extensions>
      </trkpt>
      <trkpt lat="36.0373616" lon="136.2749612">
        <name>岡西谷町</name>
        <desc>岡西谷町, 福井市, 福井県, 918-8237, 日本</desc>
        <extensions>
          <quarter>岡西谷町</quarter>
          <city>福井市</city>
          <province>福井県</province>
          <ISO3166-2-lvl4>JP-18</ISO3166-2-lvl4>
          <postcode>918-8237</postcode>
          <country>日本</country>
          <country_code>jp</country_code>
        </extensions>
      </trkpt>
      <trkpt lat="36.046167" lon="136.2597906">
        <name>曽万布町</name>
        <desc>稲津松岡線, 曽万布町, 福井市, 福井県, 918-8237, 日本</desc>
        <extensions>
          <road>稲津松岡線</road>
          <quarter>曽万布町</quarter>
          <city>福井市</city>
          <province>福井県</province>
          <ISO3166-2-lvl4>JP-18</ISO3166-2-lvl4>
          <postcode>918-8237</postcode>
          <country>日本</country>
          <country_code>jp</country_code>
        </extensions>
      </trkpt>
      <trkpt lat="36.0457376" lon="136.2515241">
        <name>和田中三丁目</name>
        <desc>和田中三丁目, 福井市, 福井県, 918-8237, 日本</desc>
        <extensions>
          <neighbourhood>和田中三丁目</neighbourhood>
          <city>福井市</city>
          <province>福井県</province>
          <ISO3166-2-lvl4>JP-18</ISO3166-2-lvl4>
          <postcode>918-8237</postcode>
          <country>日本</country>
          <country_code>jp</country_code>
        </extensions>
      </trkpt>
      <trkpt lat="36.0468609" lon="136.2481338">
        <name>和田中二丁目</name>
        <desc>和田中二丁目, 福井市, 福井県, 918-8237, 日本</desc>
        <extensions>
          <neighbourhood>和田中二丁目</neighbourhood>
          <city>福井市</city>
          <province>福井県</province>
          <ISO3166-2-lvl4>JP-18</ISO3166-2-lvl4>
          <postcode>918-8237</postcode>
          <country>日本</country>
          <country_code>jp</country_code>
        </extensions>
      </trkpt>
      <trkpt lat="36.0493418" lon="136.2495875">
        <name>和田東二丁目</name>
        <desc>和田東二丁目, 福井市, 福井県, 918-8237, 日本</desc>
        <extensions>
          <neighbourhood>和田東二丁目</neighbourhood>
          <city>福井市</city>
          <province>福井県</province>
          <ISO3166-2-lvl4>JP-18</ISO3166-2-lvl4>
          <postcode>918-8237</postcode>
          <country>日本</country>
          <country_code>jp</country_code>
        </extensions>
      </trkpt>
      <trkpt lat="36.0497539" lon="136.2457707">
        <name>和田三丁目</name>
        <desc>和田三丁目, 福井市, 福井県, 918-8237, 日本</desc>
        <extensions>
          <neighbourhood>和田三丁目</neighbourhood>
          <city>福井市</city>
          <province>福井県</province>
          <ISO3166-2-lvl4>JP-18</ISO3166-2-lvl4>
          <postcode>918-8237</postcode>
          <country>日本</country>
          <country_code>jp</country_code>
        </extensions>
      </trkpt>
      <trkpt lat="36.0532452" lon="136.247246">
        <name>和田東一丁目</name>
        <desc>和田東一丁目, 福井市, 福井県, 918-8237, 日本</desc>
        <extensions>
          <neighbourhood>和田東一丁目</neighbourhood>
          <city>福井市</city>
          <province>福井県</province>
          <ISO3166-2-lvl4>JP-18</ISO3166-2-lvl4>
          <postcode>918-8237</postcode>
          <country>日本</country>
          <country_code>jp</country_code>
        </extensions>
      </trkpt>
      <trkpt lat="36.0526164" lon="136.2520015">
        <name>問屋町三丁目</name>
        <desc>問屋町三丁目, 福井市, 福井県, 918-8237, 日本</desc>
        <extensions>
          <neighbourhood>問屋町三丁目</neighbourhood>
          <city>福井市</city>
          <province>福井県</province>
          <ISO3166-2-lvl4>JP-18</ISO3166-2-lvl4>
          <postcode>918-8237</postcode>
          <country>日本</country>
          <country_code>jp</country_code>
        </extensions>
      </trkpt>
      <trkpt lat="36.0526337" lon="136.2560356">
        <name>問屋町四丁目</name>
        <desc>問屋町四丁目, 福井市, 福井県, 918-8237, 日本</desc>
        <extensions>
          <neighbourhood>問屋町四丁目</neighbourhood>
          <city>福井市</city>
          <province>福井県</province>
          <ISO3166-2-lvl4>JP-18</ISO3166-2-lvl4>
          <postcode>918-8237</postcode>
          <country>日本</country>
          <country_code>jp</country_code>
        </extensions>
      </trkpt>
      <trkpt lat="36.0552142" lon="136.2560409">
        <name>問屋町二丁目</name>
        <desc>問屋町二丁目, 福井市, 福井県, 918-8237, 日本</desc>
        <extensions>
          <neighbourhood>問屋町二丁目</neighbourhood>
          <city>福井市</city>
          <province>福井県</province>
          <ISO3166-2-lvl4>JP-18</ISO3166-2-lvl4>
          <postcode>918-8237</postcode>
          <country>日本</country>
          <country_code>jp</country_code>
        </extensions>
      </trkpt>
      <trkpt lat="36.0416039" lon="136.2484074">
        <name>和田中町</name>
        <desc>和田中町, 福井市, 福井県, 918-8237, 日本</desc>
        <extensions>
          <quarter>和田中町</quarter>
          <city>福井市</city>
          <province>福井県</province>
          <ISO3166-2-lvl4>JP-18</ISO3166-2-lvl4>
          <postcode>918-8237</postcode>
          <country>日本</country>
          <country_code>jp</country_code>
        </extensions>
      </trkpt>
      <trkpt lat="36.0372141" lon="136.2532031">
        <name>栂野町</name>
        <desc>栂野町, 福井市, 福井県, 918-8237, 日本</desc>
        <extensions>
          <quarter>栂野町</quarter>
          <city>福井市</city>
          <province>福井県</province>
          <ISO3166-2-lvl4>JP-18</ISO3166-2-lvl4>
          <postcode>918-8237</postcode>
          <country>日本</country>
          <country_code>jp</country_code>
        </extensions>
      </trkpt>
      <trkpt lat="36.030334" lon="136.2576556">
        <name>稲津町</name>
        <desc>稲津町, 福井市, 福井県, 918-8237, 日本</desc>
        <extensions>
          <quarter>稲津町</quarter>
          <city>福井市</city>
          <province>福井県</province>
          <ISO3166-2-lvl4>JP-18</ISO3166-2-lvl4>
          <postcode>918-8237</postcode>
          <country>日本</country>
          <country_code>jp</country_code>
        </extensions>
      </trkpt>
      <trkpt lat="36.0460368" lon="136.2433326">
        <name>和田中一丁目</name>
        <desc>和田中一丁目, 福井市, 福井県, 918-8237, 日本</desc>
        <extensions>
          <neighbourhood>和田中一丁目</neighbourhood>
          <city>福井市</city>
          <province>福井県</province>
          <ISO3166-2-lvl4>JP-18</ISO3166-2-lvl4>
          <postcode>918-8237</postcode>
          <country>日本</country>
          <country_code>jp</country_code>
        </extensions>
      </trkpt>
      <trkpt lat="36.0492681" lon="136.242705">
        <name>和田二丁目</name>
        <desc>篠尾出作線, 和田二丁目, 福井市, 福井県, 918-8237, 日本</desc>
        <extensions>
          <road>篠尾出作線</road>
          <neighbourhood>和田二丁目</neighbourhood>
          <city>福井市</city>
          <province>福井県</province>
          <ISO3166-2-lvl4>JP-18</ISO3166-2-lvl4>
          <postcode>918-8237</postcode>
          <country>日本</country>
          <country_code>jp</country_code>
        </extensions>
      </trkpt>
      <trkpt lat="36.0506777" lon="136.2412727">
        <name>和田一丁目</name>
        <desc>和田一丁目, 福井市, 福井県, 910-0842, 日本</desc>
        <extensions>
          <neighbourhood>和田一丁目</neighbourhood>
          <city>福井市</city>
          <province>福井県</province>
          <ISO3166-2-lvl4>JP-18</ISO3166-2-lvl4>
          <postcode>910-0842</postcode>
          <country>日本</country>
          <country_code>jp</country_code>
        </extensions>
      </trkpt>
      <trkpt lat="36.0505909" lon="136.2383062">
        <name>西方二丁目</name>
        <desc>西方二丁目, 福井市, 福井県, 910-0842, 日本</desc>
        <extensions>
          <neighbourhood>西方二丁目</neighbourhood>
          <city>福井市</city>
          <province>福井県</province>
          <ISO3166-2-lvl4>JP-18</ISO3166-2-lvl4>
          <postcode>910-0842</postcode>
          <country>日本</country>
          <country_code>jp</country_code>
        </extensions>
      </trkpt>
      <trkpt lat="36.0518444" lon="136.2353611">
        <name>西方一丁目</name>
        <desc>西方一丁目, 福井市, 福井県, 910-0842, 日本</desc>
        <extensions>
          <neighbourhood>西方一丁目</neighbourhood>
          <city>福井市</city>
          <province>福井県</province>
          <ISO3166-2-lvl4>JP-18</ISO3166-2-lvl4>
          <postcode>910-0842</postcode>
          <country>日本</country>
          <country_code>jp</country_code>
        </extensions>
      </trkpt>
      <trkpt lat="36.0532712" lon="136.2327218">
        <name>勝見三丁目</name>
        <desc>勝見三丁目, 福井市, 福井県, 918-8103, 日本</desc>
        <extensions>
          <neighbourhood>勝見三丁目</neighbourhood>
          <city>福井市</city>
          <province>福井県</province>
          <ISO3166-2-lvl4>JP-18</ISO3166-2-lvl4>
          <postcode>918-8103</postcode>
          <country>日本</country>
          <country_code>jp</country_code>
        </extensions>
      </trkpt>
      <trkpt lat="36.0518444" lon="136.2295729">
        <name>板垣町</name>
        <desc>板垣町, 福井市, 福井県, 918-8103, 日本</desc>
        <extensions>
          <quarter>板垣町</quarter>
          <city>福井市</city>
          <province>福井県</province>
          <ISO3166-2-lvl4>JP-18</ISO3166-2-lvl4>
          <postcode>918-8103</postcode>
          <country>日本</country>
          <country_code>jp</country_code>
        </extensions>
      </trkpt>
      <trkpt lat="36.0507297" lon="136.2289399">
        <name>板垣一丁目</name>
        <desc>板垣一丁目, 福井市, 福井県, 918-8103, 日本</desc>
        <extensions>
          <neighbourhood>板垣一丁目</neighbourhood>
          <city>福井市</city>
          <province>福井県</province>
          <ISO3166-2-lvl4>JP-18</ISO3166-2-lvl4>
          <postcode>918-8103</postcode>
          <country>日本</country>
          <country_code>jp</country_code>
        </extensions>
      </trkpt>
      <trkpt lat="36.0529893" lon="136.2289909">
        <name>西板垣町</name>
        <desc>西板垣町, 福井市, 福井県, 918-8103, 日本</desc>
        <extensions>
          <quarter>西板垣町</quarter>
          <city>福井市</city>
          <province>福井県</province>
          <ISO3166-2-lvl4>JP-18</ISO3166-2-lvl4>
          <postcode>918-8103</postcode>
          <country>日本</country>
          <country_code>jp</country_code>
        </extensions>
      </trkpt>
      <trkpt lat="36.0553616" lon="136.228677">
        <name>勝見二丁目</name>
        <desc>勝見二丁目, 福井市, 福井県, 918-8103, 日本</desc>
        <extensions>
          <neighbourhood>勝見二丁目</neighbourhood>
          <city>福井市</city>
          <province>福井県</province>
          <ISO3166-2-lvl4>JP-18</ISO3166-2-lvl4>
          <postcode>918-8103</postcode>
          <country>日本</country>
          <country_code>jp</country_code>
        </extensions>
      </trkpt>
      <trkpt lat="36.0483681" lon="136.2296721">
        <name>板垣二丁目</name>
        <desc>板垣二丁目, 福井市, 福井県, 918-8103, 日本</desc>
        <extensions>
          <neighbourhood>板垣二丁目</neighbourhood>
          <city>福井市</city>
          <province>福井県</province>
          <ISO3166-2-lvl4>JP-18</ISO3166-2-lvl4>
          <postcode>918-8103</postcode>
          <country>日本</country>
          <country_code>jp</country_code>
        </extensions>
      </trkpt>
      <trkpt lat="36.0456053" lon="136.2292913">
        <name>板垣四丁目</name>
        <desc>板垣四丁目, 福井市, 福井県, 918-8104, 日本</desc>
        <extensions>
          <neighbourhood>板垣四丁目</neighbourhood>
          <city>福井市</city>
          <province>福井県</province>
          <ISO3166-2-lvl4>JP-18</ISO3166-2-lvl4>
          <postcode>918-8104</postcode>
          <country>日本</country>
          <country_code>jp</country_code>
        </extensions>
      </trkpt>
      <trkpt lat="36.0439245" lon="136.2297365">
        <name>板垣五丁目</name>
        <desc>板垣五丁目, 福井市, 福井県, 918-8104, 日本</desc>
        <extensions>
          <neighbourhood>板垣五丁目</neighbourhood>
          <city>福井市</city>
          <province>福井県</province>
          <ISO3166-2-lvl4>JP-18</ISO3166-2-lvl4>
          <postcode>918-8104</postcode>
          <country>日本</country>
          <country_code>jp</country_code>
        </extensions>
      </trkpt>
      <trkpt lat="36.0462927" lon="136.2331402">
        <name>板垣三丁目</name>
        <desc>板垣三丁目, 福井市, 福井県, 918-8104, 日本</desc>
        <extensions>
          <neighbourhood>板垣三丁目</neighbourhood>
          <city>福井市</city>
          <province>福井県</province>
          <ISO3166-2-lvl4>JP-18</ISO3166-2-lvl4>
          <postcode>918-8104</postcode>
          <country>日本</country>
          <country_code>jp</country_code>
        </extensions>
      </trkpt>
      <trkpt lat="36.0471472" lon="136.23667">
        <name>馬垣町</name>
        <desc>馬垣町, 福井市, 福井県, 918-8104, 日本</desc>
        <extensions>
          <quarter>馬垣町</quarter>
          <city>福井市</city>
          <province>福井県</province>
          <ISO3166-2-lvl4>JP-18</ISO3166-2-lvl4>
          <postcode>918-8104</postcode>
          <country>日本</country>
          <country_code>jp</country_code>
        </extensions>
      </trkpt>
      <trkpt lat="36.0437597" lon="136.2393147">
        <name>下馬一丁目</name>
        <desc>下馬一丁目, 福井市, 福井県, 918-8104, 日本</desc>
        <extensions>
          <neighbourhood>下馬一丁目</neighbourhood>
          <city>福井市</city>
          <province>福井県</province>
          <ISO3166-2-lvl4>JP-18</ISO3166-2-lvl4>
          <postcode>918-8104</postcode>
          <country>日本</country>
          <country_code>jp</country_code>
        </extensions>
      </trkpt>
      <trkpt lat="36.0551665" lon="136.2398082">
        <name>御幸四丁目</name>
        <desc>御幸四丁目, 福井市, 福井県, 910-0842, 日本</desc>
        <extensions>
          <neighbourhood>御幸四丁目</neighbourhood>
          <city>福井市</city>
          <province>福井県</province>
          <ISO3166-2-lvl4>JP-18</ISO3166-2-lvl4>
          <postcode>910-0842</postcode>
          <country>日本</country>
          <country_code>jp</country_code>
        </extensions>
      </trkpt>
      <trkpt lat="36.0420724" lon="136.2373781">
        <name>下馬二丁目</name>
        <desc>下馬二丁目, 福井市, 福井県, 918-8104, 日本</desc>
        <extensions>
          <neighbourhood>下馬二丁目</neighbourhood>
          <city>福井市</city>
          <province>福井県</province>
          <ISO3166-2-lvl4>JP-18</ISO3166-2-lvl4>
          <postcode>918-8104</postcode>
          <country>日本</country>
          <country_code>jp</country_code>
        </extensions>
      </trkpt>
      <trkpt lat="36.0401465" lon="136.2338269">
        <name>下馬三丁目</name>
        <desc>下馬三丁目, 福井市, 福井県, 918-8114, 日本</desc>
        <extensions>
          <neighbourhood>下馬三丁目</neighbourhood>
          <city>福井市</city>
          <province>福井県</province>
          <ISO3166-2-lvl4>JP-18</ISO3166-2-lvl4>
          <postcode>918-8114</postcode>
          <country>日本</country>
          <country_code>jp</country_code>
        </extensions>
      </trkpt>
      <trkpt lat="36.042042" lon="136.2299216">
        <name>羽水一丁目</name>
        <desc>国道8号, 羽水三丁目, 福井市, 福井県, 918-8114, 日本</desc>
        <extensions>
          <road>国道8号</road>
          <neighbourhood>羽水三丁目</neighbourhood>
          <city>福井市</city>
          <province>福井県</province>
          <ISO3166-2-lvl4>JP-18</ISO3166-2-lvl4>
          <postcode>918-8114</postcode>
          <country>日本</country>
          <country_code>jp</country_code>
        </extensions>
      </trkpt>
      <trkpt lat="36.039704" lon="136.2291813">
        <name>羽水二丁目</name>
        <desc>羽水二丁目, 福井市, 福井県, 918-8114, 日本</desc>
        <extensions>
          <neighbourhood>羽水二丁目</neighbourhood>
          <city>福井市</city>
          <province>福井県</province>
          <ISO3166-2-lvl4>JP-18</ISO3166-2-lvl4>
          <postcode>918-8114</postcode>
          <country>日本</country>
          <country_code>jp</country_code>
        </extensions>
      </trkpt>
      <trkpt lat="36.0375742" lon="136.2293315">
        <name>羽水三丁目</name>
        <desc>激安王, 国道8号, 羽水三丁目, 福井市, 福井県, 918-8114, 日本</desc>
        <extensions>
          <shop>激安王</shop>
          <road>国道8号</road>
          <neighbourhood>羽水三丁目</neighbourhood>
          <city>福井市</city>
          <province>福井県</province>
          <ISO3166-2-lvl4>JP-18</ISO3166-2-lvl4>
          <postcode>918-8114</postcode>
          <country>日本</country>
          <country_code>jp</country_code>
        </extensions>
      </trkpt>
      <trkpt lat="36.02918" lon="136.2311768">
        <name>下六条町</name>
        <desc>下六条町, 福井市, 福井県, 918-8114, 日本</desc>
        <extensions>
          <quarter>下六条町</quarter>
          <city>福井市</city>
          <province>福井県</province>
          <ISO3166-2-lvl4>JP-18</ISO3166-2-lvl4>
          <postcode>918-8114</postcode>
          <country>日本</country>
          <country_code>jp</country_code>
        </extensions>
      </trkpt>
      <trkpt lat="36.0340388" lon="136.2416053">
        <name>小稲津町</name>
        <desc>小稲津町, 福井市, 福井県, 918-8114, 日本</desc>
        <extensions>
          <quarter>小稲津町</quarter>
          <city>福井市</city>
          <province>福井県</province>
          <ISO3166-2-lvl4>JP-18</ISO3166-2-lvl4>
          <postcode>918-8114</postcode>
          <country>日本</country>
          <country_code>jp</country_code>
        </extensions>
      </trkpt>
      <trkpt lat="36.0394004" lon="136.2414604">
        <name>下馬町</name>
        <desc>下馬町, 福井市, 福井県, 918-8104, 日本</desc>
        <extensions>
          <quarter>下馬町</quarter>
          <city>福井市</city>
          <province>福井県</province>
          <ISO3166-2-lvl4>JP-18</ISO3166-2-lvl4>
          <postcode>918-8104</postcode>
          <country>日本</country>
          <country_code>jp</country_code>
        </extensions>
      </trkpt>
      <trkpt lat="36.035505" lon="136.223849">
        <name>別所町</name>
        <desc>大町二丁目, 福井市, 福井県, 918-8116, 日本</desc>
        <extensions>
          <neighbourhood>大町二丁目</neighbourhood>
          <city>福井市</city>
          <province>福井県</province>
          <ISO3166-2-lvl4>JP-18</ISO3166-2-lvl4>
          <postcode>918-8116</postcode>
          <country>日本</country>
          <country_code>jp</country_code>
        </extensions>
      </trkpt>
      <trkpt lat="36.0352382" lon="136.2221298">
        <name>大町二丁目</name>
        <desc>大町二丁目, 福井市, 福井県, 918-8116, 日本</desc>
        <extensions>
          <neighbourhood>大町二丁目</neighbourhood>
          <city>福井市</city>
          <province>福井県</province>
          <ISO3166-2-lvl4>JP-18</ISO3166-2-lvl4>
          <postcode>918-8116</postcode>
          <country>日本</country>
          <country_code>jp</country_code>
        </extensions>
      </trkpt>
      <trkpt lat="36.0360429" lon="136.2194449">
        <name>大町一丁目</name>
        <desc>大町一丁目, 福井市, 福井県, 918-8116, 日本</desc>
        <extensions>
          <neighbourhood>大町一丁目</neighbourhood>
          <city>福井市</city>
          <province>福井県</province>
          <ISO3166-2-lvl4>JP-18</ISO3166-2-lvl4>
          <postcode>918-8116</postcode>
          <country>日本</country>
          <country_code>jp</country_code>
        </extensions>
      </trkpt>
      <trkpt lat="36.0369539" lon="136.216194">
        <name>花堂中一丁目</name>
        <desc>花堂中一丁目, 福井市, 福井県, 918-8116, 日本</desc>
        <extensions>
          <neighbourhood>花堂中一丁目</neighbourhood>
          <city>福井市</city>
          <province>福井県</province>
          <ISO3166-2-lvl4>JP-18</ISO3166-2-lvl4>
          <postcode>918-8116</postcode>
          <country>日本</country>
          <country_code>jp</country_code>
        </extensions>
      </trkpt>
      <trkpt lat="36.0339195" lon="136.2150407">
        <name>花堂南一丁目</name>
        <desc>花堂南一丁目, 福井市, 福井県, 918-8116, 日本</desc>
        <extensions>
          <neighbourhood>花堂南一丁目</neighbourhood>
          <city>福井市</city>
          <province>福井県</province>
          <ISO3166-2-lvl4>JP-18</ISO3166-2-lvl4>
          <postcode>918-8116</postcode>
          <country>日本</country>
          <country_code>jp</country_code>
        </extensions>
      </trkpt>
      <trkpt lat="36.0339607" lon="136.2116584">
        <name>花堂南二丁目</name>
        <desc>花堂南二丁目, 福井市, 福井県, 918-8024, 日本</desc>
        <extensions>
          <neighbourhood>花堂南二丁目</neighbourhood>
          <city>福井市</city>
          <province>福井県</province>
          <ISO3166-2-lvl4>JP-18</ISO3166-2-lvl4>
          <postcode>918-8024</postcode>
          <country>日本</country>
          <country_code>jp</country_code>
        </extensions>
      </trkpt>
      <trkpt lat="36.0379255" lon="136.2114358">
        <name>花堂中二丁目</name>
        <desc>南部1-188号線, 花堂中二丁目, 福井市, 福井県, 918-8012, 日本</desc>
        <extensions>
          <road>南部1-188号線</road>
          <neighbourhood>花堂中二丁目</neighbourhood>
          <city>福井市</city>
          <province>福井県</province>
          <ISO3166-2-lvl4>JP-18</ISO3166-2-lvl4>
          <postcode>918-8012</postcode>
          <country>日本</country>
          <country_code>jp</country_code>
        </extensions>
      </trkpt>
      <trkpt lat="36.0414304" lon="136.2105399">
        <name>花堂北二丁目</name>
        <desc>花堂北二丁目, 福井市, 福井県, 918-8012, 日本</desc>
        <extensions>
          <neighbourhood>花堂北二丁目</neighbourhood>
          <city>福井市</city>
          <province>福井県</province>
          <ISO3166-2-lvl4>JP-18</ISO3166-2-lvl4>
          <postcode>918-8012</postcode>
          <country>日本</country>
          <country_code>jp</country_code>
        </extensions>
      </trkpt>
      <trkpt lat="36.0416516" lon="136.216253">
        <name>花堂北一丁目</name>
        <desc>花堂北一丁目, 福井市, 福井県, 918-8116, 日本</desc>
        <extensions>
          <neighbourhood>花堂北一丁目</neighbourhood>
          <city>福井市</city>
          <province>福井県</province>
          <ISO3166-2-lvl4>JP-18</ISO3166-2-lvl4>
          <postcode>918-8116</postcode>
          <country>日本</country>
          <country_code>jp</country_code>
        </extensions>
      </trkpt>
      <trkpt lat="36.0403221" lon="136.22022">
        <name>花堂東一丁目</name>
        <desc>花堂東一丁目, 福井市, 福井県, 918-8116, 日本</desc>
        <extensions>
          <neighbourhood>花堂東一丁目</neighbourhood>
          <city>福井市</city>
          <province>福井県</province>
          <ISO3166-2-lvl4>JP-18</ISO3166-2-lvl4>
          <postcode>918-8116</postcode>
          <country>日本</country>
          <country_code>jp</country_code>
        </extensions>
      </trkpt>
      <trkpt lat="36.0401703" lon="136.2229612">
        <name>花堂東二丁目</name>
        <desc>花堂東二丁目, 福井市, 福井県, 918-8116, 日本</desc>
        <extensions>
          <neighbourhood>花堂東二丁目</neighbourhood>
          <city>福井市</city>
          <province>福井県</province>
          <ISO3166-2-lvl4>JP-18</ISO3166-2-lvl4>
          <postcode>918-8116</postcode>
          <country>日本</country>
          <country_code>jp</country_code>
        </extensions>
      </trkpt>
      <trkpt lat="36.0321387" lon="136.220448">
        <name>大町</name>
        <desc>大町, 福井市, 福井県, 918-8116, 日本</desc>
        <extensions>
          <quarter>大町</quarter>
          <city>福井市</city>
          <province>福井県</province>
          <ISO3166-2-lvl4>JP-18</ISO3166-2-lvl4>
          <postcode>918-8116</postcode>
          <country>日本</country>
          <country_code>jp</country_code>
        </extensions>
      </trkpt>
      <trkpt lat="36.0287896" lon="136.2116879">
        <name>江端町</name>
        <desc>ファミリーマート, 福井鯖江線, 江端町, 福井市, 福井県, 918-8024, 日本</desc>
        <extensions>
          <shop>ファミリーマート</shop>
          <road>福井鯖江線</road>
          <quarter>江端町</quarter>
          <city>福井市</city>
          <province>福井県</province>
          <ISO3166-2-lvl4>JP-18</ISO3166-2-lvl4>
          <postcode>918-8024</postcode>
          <country>日本</country>
          <country_code>jp</country_code>
        </extensions>
      </trkpt>
      <trkpt lat="36.0424367" lon="136.2248254">
        <name>木田三丁目</name>
        <desc>木田三丁目, 福井市, 福井県, 918-8105, 日本</desc>
        <extensions>
          <neighbourhood>木田三丁目</neighbourhood>
          <city>福井市</city>
          <province>福井県</province>
          <ISO3166-2-lvl4>JP-18</ISO3166-2-lvl4>
          <postcode>918-8105</postcode>
          <country>日本</country>
          <country_code>jp</country_code>
        </extensions>
      </trkpt>
      <trkpt lat="36.0461713" lon="136.2242246">
        <name>木田二丁目</name>
        <desc>木田二丁目, 福井市, 福井県, 918-8105, 日本</desc>
        <extensions>
          <neighbourhood>木田二丁目</neighbourhood>
          <city>福井市</city>
          <province>福井県</province>
          <ISO3166-2-lvl4>JP-18</ISO3166-2-lvl4>
          <postcode>918-8105</postcode>
          <country>日本</country>
          <country_code>jp</country_code>
        </extensions>
      </trkpt>
      <trkpt lat="36.0482749" lon="136.2237042">
        <name>木田一丁目</name>
        <desc>木田一丁目, 福井市, 福井県, 918-8105, 日本</desc>
        <extensions>
          <neighbourhood>木田一丁目</neighbourhood>
          <city>福井市</city>
          <province>福井県</province>
          <ISO3166-2-lvl4>JP-18</ISO3166-2-lvl4>
          <postcode>918-8105</postcode>
          <country>日本</country>
          <country_code>jp</country_code>
        </extensions>
      </trkpt>
      <trkpt lat="36.0508555" lon="136.2244713">
        <name>春日三丁目</name>
        <desc>春日三丁目, 福井市, 福井県, 918-8105, 日本</desc>
        <extensions>
          <neighbourhood>春日三丁目</neighbourhood>
          <city>福井市</city>
          <province>福井県</province>
          <ISO3166-2-lvl4>JP-18</ISO3166-2-lvl4>
          <postcode>918-8105</postcode>
          <country>日本</country>
          <country_code>jp</country_code>
        </extensions>
      </trkpt>
      <trkpt lat="36.0528842" lon="136.2261236">
        <name>一本木町</name>
        <desc>福井刑務所, 一本木町, 福井市, 福井県, 918-8101, 日本</desc>
        <extensions>
          <amenity>福井刑務所</amenity>
          <quarter>一本木町</quarter>
          <city>福井市</city>
          <province>福井県</province>
          <ISO3166-2-lvl4>JP-18</ISO3166-2-lvl4>
          <postcode>918-8101</postcode>
          <country>日本</country>
          <country_code>jp</country_code>
        </extensions>
      </trkpt>
      <trkpt lat="36.0552879" lon="136.2250185">
        <name>勝見一丁目</name>
        <desc>勝見一丁目, 福井市, 福井県, 910-0858, 日本</desc>
        <extensions>
          <neighbourhood>勝見一丁目</neighbourhood>
          <city>福井市</city>
          <province>福井県</province>
          <ISO3166-2-lvl4>JP-18</ISO3166-2-lvl4>
          <postcode>910-0858</postcode>
          <country>日本</country>
          <country_code>jp</country_code>
        </extensions>
      </trkpt>
      <trkpt lat="36.0535054" lon="136.2197989">
        <name>春日一丁目</name>
        <desc>春日一丁目, 福井市, 福井県, 918-8004, 日本</desc>
        <extensions>
          <neighbourhood>春日一丁目</neighbourhood>
          <city>福井市</city>
          <province>福井県</province>
          <ISO3166-2-lvl4>JP-18</ISO3166-2-lvl4>
          <postcode>918-8004</postcode>
          <country>日本</country>
          <country_code>jp</country_code>
        </extensions>
      </trkpt>
      <trkpt lat="36.0514714" lon="136.2191847">
        <name>春日二丁目</name>
        <desc>春日二丁目, 福井市, 福井県, 918-8108, 日本</desc>
        <extensions>
          <neighbourhood>春日二丁目</neighbourhood>
          <city>福井市</city>
          <province>福井県</province>
          <ISO3166-2-lvl4>JP-18</ISO3166-2-lvl4>
          <postcode>918-8108</postcode>
          <country>日本</country>
          <country_code>jp</country_code>
        </extensions>
      </trkpt>
      <trkpt lat="36.0501399" lon="136.219756">
        <name>春日町</name>
        <desc>春日町, 福井市, 福井県, 918-8105, 日本</desc>
        <extensions>
          <quarter>春日町</quarter>
          <city>福井市</city>
          <province>福井県</province>
          <ISO3166-2-lvl4>JP-18</ISO3166-2-lvl4>
          <postcode>918-8105</postcode>
          <country>日本</country>
          <country_code>jp</country_code>
        </extensions>
      </trkpt>
      <trkpt lat="36.0500206" lon="136.2164515">
        <name>みのり一丁目</name>
        <desc>みのり一丁目, 福井市, 福井県, 918-8004, 日本</desc>
        <extensions>
          <neighbourhood>みのり一丁目</neighbourhood>
          <city>福井市</city>
          <province>福井県</province>
          <ISO3166-2-lvl4>JP-18</ISO3166-2-lvl4>
          <postcode>918-8004</postcode>
          <country>日本</country>
          <country_code>jp</country_code>
        </extensions>
      </trkpt>
      <trkpt lat="36.0503838" lon="136.214173">
        <name>みのり二丁目</name>
        <desc>みのり三丁目, 福井市, 福井県, 918-8004, 日本</desc>
        <extensions>
          <neighbourhood>みのり三丁目</neighbourhood>
          <city>福井市</city>
          <province>福井県</province>
          <ISO3166-2-lvl4>JP-18</ISO3166-2-lvl4>
          <postcode>918-8004</postcode>
          <country>日本</country>
          <country_code>jp</country_code>
        </extensions>
      </trkpt>
      <trkpt lat="36.0498276" lon="136.2106526">
        <name>みのり三丁目</name>
        <desc>みのり三丁目, 福井市, 福井県, 918-8004, 日本</desc>
        <extensions>
          <neighbourhood>みのり三丁目</neighbourhood>
          <city>福井市</city>
          <province>福井県</province>
          <ISO3166-2-lvl4>JP-18</ISO3166-2-lvl4>
          <postcode>918-8004</postcode>
          <country>日本</country>
          <country_code>jp</country_code>
        </extensions>
      </trkpt>
      <trkpt lat="36.0540324" lon="136.2114921">
        <name>西木田三丁目</name>
        <desc>西木田三丁目, 福井市, 福井県, 918-8004, 日本</desc>
        <extensions>
          <neighbourhood>西木田三丁目</neighbourhood>
          <city>福井市</city>
          <province>福井県</province>
          <ISO3166-2-lvl4>JP-18</ISO3166-2-lvl4>
          <postcode>918-8004</postcode>
          <country>日本</country>
          <country_code>jp</country_code>
        </extensions>
      </trkpt>
      <trkpt lat="36.0540472" lon="136.2138466">
        <name>西木田二丁目</name>
        <desc>西木田二丁目, 福井市, 福井県, 918-8004, 日本</desc>
        <extensions>
          <neighbourhood>西木田二丁目</neighbourhood>
          <city>福井市</city>
          <province>福井県</province>
          <ISO3166-2-lvl4>JP-18</ISO3166-2-lvl4>
          <postcode>918-8004</postcode>
          <country>日本</country>
          <country_code>jp</country_code>
        </extensions>
      </trkpt>
      <trkpt lat="36.0539988" lon="136.2164153">
        <name>西木田一丁目</name>
        <desc>西木田一丁目, 福井市, 福井県, 918-8004, 日本</desc>
        <extensions>
          <neighbourhood>西木田一丁目</neighbourhood>
          <city>福井市</city>
          <province>福井県</province>
          <ISO3166-2-lvl4>JP-18</ISO3166-2-lvl4>
          <postcode>918-8004</postcode>
          <country>日本</country>
          <country_code>jp</country_code>
        </extensions>
      </trkpt>
      <trkpt lat="36.0464619" lon="136.2198928">
        <name>木田町</name>
        <desc>木田町, 福井市, 福井県, 918-8105, 日本</desc>
        <extensions>
          <quarter>木田町</quarter>
          <city>福井市</city>
          <province>福井県</province>
          <ISO3166-2-lvl4>JP-18</ISO3166-2-lvl4>
          <postcode>918-8105</postcode>
          <country>日本</country>
          <country_code>jp</country_code>
        </extensions>
      </trkpt>
      <trkpt lat="36.0456551" lon="136.2173313">
        <name>月見一丁目</name>
        <desc>月見一丁目, 福井市, 福井県, 918-8105, 日本</desc>
        <extensions>
          <neighbourhood>月見一丁目</neighbourhood>
          <city>福井市</city>
          <province>福井県</province>
          <ISO3166-2-lvl4>JP-18</ISO3166-2-lvl4>
          <postcode>918-8105</postcode>
          <country>日本</country>
          <country_code>jp</country_code>
        </extensions>
      </trkpt>
      <trkpt lat="36.0460932" lon="136.2136084">
        <name>月見二丁目</name>
        <desc>福井赤十字病院, 福井鯖江線, みのり二丁目, 福井市, 福井県, 918-8004, 日本</desc>
        <extensions>
          <amenity>福井赤十字病院</amenity>
          <road>福井鯖江線</road>
          <neighbourhood>みのり二丁目</neighbourhood>
          <city>福井市</city>
          <province>福井県</province>
          <ISO3166-2-lvl4>JP-18</ISO3166-2-lvl4>
          <postcode>918-8004</postcode>
          <country>日本</country>
          <country_code>jp</country_code>
        </extensions>
      </trkpt>
      <trkpt lat="36.0564719" lon="136.21194">
        <name>毛矢三丁目</name>
        <desc>山奥九十九橋線, 西木田三丁目, 福井市, 福井県, 918-8004, 日本</desc>
        <extensions>
          <road>山奥九十九橋線</road>
          <neighbourhood>西木田三丁目</neighbourhood>
          <city>福井市</city>
          <province>福井県</province>
          <ISO3166-2-lvl4>JP-18</ISO3166-2-lvl4>
          <postcode>918-8004</postcode>
          <country>日本</country>
          <country_code>jp</country_code>
        </extensions>
      </trkpt>
      <trkpt lat="36.0582911" lon="136.2147671">
        <name>毛矢二丁目</name>
        <desc>毛矢二丁目, 福井市, 福井県, 910-0023, 日本</desc>
        <extensions>
          <neighbourhood>毛矢二丁目</neighbourhood>
          <city>福井市</city>
          <province>福井県</province>
          <ISO3166-2-lvl4>JP-18</ISO3166-2-lvl4>
          <postcode>910-0023</postcode>
          <country>日本</country>
          <country_code>jp</country_code>
        </extensions>
      </trkpt>
      <trkpt lat="36.0577924" lon="136.2163053">
        <name>毛矢一丁目</name>
        <desc>毛矢一丁目, 福井市, 福井県, 910-0006, 日本</desc>
        <extensions>
          <neighbourhood>毛矢一丁目</neighbourhood>
          <city>福井市</city>
          <province>福井県</province>
          <ISO3166-2-lvl4>JP-18</ISO3166-2-lvl4>
          <postcode>910-0006</postcode>
          <country>日本</country>
          <country_code>jp</country_code>
        </extensions>
      </trkpt>
      <trkpt lat="36.0586991" lon="136.2192252">
        <name>中央二丁目</name>
        <desc>中央二丁目, 福井市, 福井県, 910-0006, 日本</desc>
        <extensions>
          <neighbourhood>中央二丁目</neighbourhood>
          <city>福井市</city>
          <province>福井県</province>
          <ISO3166-2-lvl4>JP-18</ISO3166-2-lvl4>
          <postcode>910-0006</postcode>
          <country>日本</country>
          <country_code>jp</country_code>
        </extensions>
      </trkpt>
      <trkpt lat="36.0577122" lon="136.2213331">
        <name>豊島一丁目</name>
        <desc>豊島一丁目, 福井市, 福井県, 910-0858, 日本</desc>
        <extensions>
          <neighbourhood>豊島一丁目</neighbourhood>
          <city>福井市</city>
          <province>福井県</province>
          <ISO3166-2-lvl4>JP-18</ISO3166-2-lvl4>
          <postcode>910-0858</postcode>
          <country>日本</country>
          <country_code>jp</country_code>
        </extensions>
      </trkpt>
      <trkpt lat="36.0569858" lon="136.2241468">
        <name>豊島二丁目</name>
        <desc>豊島二丁目, 福井市, 福井県, 910-0858, 日本</desc>
        <extensions>
          <neighbourhood>豊島二丁目</neighbourhood>
          <city>福井市</city>
          <province>福井県</province>
          <ISO3166-2-lvl4>JP-18</ISO3166-2-lvl4>
          <postcode>910-0858</postcode>
          <country>日本</country>
          <country_code>jp</country_code>
        </extensions>
      </trkpt>
      <trkpt lat="36.0598632" lon="136.2238222">
        <name>手寄一丁目</name>
        <desc>手寄一丁目, 福井市, 福井県, 910-0858, 日本</desc>
        <extensions>
          <neighbourhood>手寄一丁目</neighbourhood>
          <city>福井市</city>
          <province>福井県</province>
          <ISO3166-2-lvl4>JP-18</ISO3166-2-lvl4>
          <postcode>910-0858</postcode>
          <country>日本</country>
          <country_code>jp</country_code>
        </extensions>
      </trkpt>
      <trkpt lat="36.0593818" lon="136.2269819">
        <name>手寄二丁目</name>
        <desc>手寄二丁目, 福井市, 福井県, 910-0853, 日本</desc>
        <extensions>
          <neighbourhood>手寄二丁目</neighbourhood>
          <city>福井市</city>
          <province>福井県</province>
          <ISO3166-2-lvl4>JP-18</ISO3166-2-lvl4>
          <postcode>910-0853</postcode>
          <country>日本</country>
          <country_code>jp</country_code>
        </extensions>
      </trkpt>
      <trkpt lat="36.0637367" lon="136.2262617">
        <name>日之出一丁目</name>
        <desc>日之出一丁目, 福井市, 福井県, 910-0853, 日本</desc>
        <extensions>
          <neighbourhood>日之出一丁目</neighbourhood>
          <city>福井市</city>
          <province>福井県</province>
          <ISO3166-2-lvl4>JP-18</ISO3166-2-lvl4>
          <postcode>910-0853</postcode>
          <country>日本</country>
          <country_code>jp</country_code>
        </extensions>
      </trkpt>
      <trkpt lat="36.064496" lon="136.2248668">
        <name>大手二丁目</name>
        <desc>福井大手郵便局, 20, 大手二丁目, 福井市, 福井県, 910-0005, 日本</desc>
        <extensions>
          <amenity>福井大手郵便局</amenity>
          <house_number>20</house_number>
          <neighbourhood>大手二丁目</neighbourhood>
          <city>福井市</city>
          <province>福井県</province>
          <ISO3166-2-lvl4>JP-18</ISO3166-2-lvl4>
          <postcode>910-0005</postcode>
          <country>日本</country>
          <country_code>jp</country_code>
        </extensions>
      </trkpt>
      <trkpt lat="36.0652125" lon="136.2229357">
        <name>大手</name>
        <desc>大手, 福井市, 福井県, 910-0005, 日本</desc>
        <extensions>
          <quarter>大手</quarter>
          <city>福井市</city>
          <province>福井県</province>
          <ISO3166-2-lvl4>JP-18</ISO3166-2-lvl4>
          <postcode>910-0005</postcode>
          <country>日本</country>
          <country_code>jp</country_code>
        </extensions>
      </trkpt>
      <trkpt lat="36.0647162" lon="136.220781">
        <name>大手三丁目</name>
        <desc>福井県警察本部, 御廊下橋, 大手三丁目, 福井市, 福井県, 910-8511, 日本</desc>
        <extensions>
          <amenity>福井県警察本部</amenity>
          <road>御廊下橋</road>
          <neighbourhood>大手三丁目</neighbourhood>
          <city>福井市</city>
          <province>福井県</province>
          <ISO3166-2-lvl4>JP-18</ISO3166-2-lvl4>
          <postcode>910-8511</postcode>
          <country>日本</country>
          <country_code>jp</country_code>
        </extensions>
      </trkpt>
      <trkpt lat="36.0648566" lon="136.216296">
        <name>順化一丁目</name>
        <desc>システムパークSOCO No.3, 福井丸岡線, 田原一丁目, 福井市, 福井県, 910-8511, 日本</desc>
        <extensions>
          <amenity>システムパークSOCO No.3</amenity>
          <road>福井丸岡線</road>
          <neighbourhood>田原一丁目</neighbourhood>
          <city>福井市</city>
          <province>福井県</province>
          <ISO3166-2-lvl4>JP-18</ISO3166-2-lvl4>
          <postcode>910-8511</postcode>
          <country>日本</country>
          <country_code>jp</country_code>
        </extensions>
      </trkpt>
      <trkpt lat="36.0653943" lon="136.2136486">
        <name>順化二丁目</name>
        <desc>順化二丁目, 福井市, 福井県, 910-0023, 日本</desc>
        <extensions>
          <neighbourhood>順化二丁目</neighbourhood>
          <city>福井市</city>
          <province>福井県</province>
          <ISO3166-2-lvl4>JP-18</ISO3166-2-lvl4>
          <postcode>910-0023</postcode>
          <country>日本</country>
          <country_code>jp</country_code>
        </extensions>
      </trkpt>
      <trkpt lat="36.0654182" lon="136.2112051">
        <name>照手一丁目</name>
        <desc>照手一丁目, 福井市, 福井県, 910-0024, 日本</desc>
        <extensions>
          <neighbourhood>照手一丁目</neighbourhood>
          <city>福井市</city>
          <province>福井県</province>
          <ISO3166-2-lvl4>JP-18</ISO3166-2-lvl4>
          <postcode>910-0024</postcode>
          <country>日本</country>
          <country_code>jp</country_code>
        </extensions>
      </trkpt>
      <trkpt lat="36.0617886" lon="136.2119079">
        <name>つくも一丁目</name>
        <desc>つくも一丁目, 福井市, 福井県, 910-0023, 日本</desc>
        <extensions>
          <neighbourhood>つくも一丁目</neighbourhood>
          <city>福井市</city>
          <province>福井県</province>
          <ISO3166-2-lvl4>JP-18</ISO3166-2-lvl4>
          <postcode>910-0023</postcode>
          <country>日本</country>
          <country_code>jp</country_code>
        </extensions>
      </trkpt>
      <trkpt lat="36.0596832" lon="136.2134501">
        <name>左内町</name>
        <desc>左内町, 福井市, 福井県, 910-0023, 日本</desc>
        <extensions>
          <quarter>左内町</quarter>
          <city>福井市</city>
          <province>福井県</province>
          <ISO3166-2-lvl4>JP-18</ISO3166-2-lvl4>
          <postcode>910-0023</postcode>
          <country>日本</country>
          <country_code>jp</country_code>
        </extensions>
      </trkpt>
      <trkpt lat="36.0624402" lon="136.2153893">
        <name>中央三丁目</name>
        <desc>中央三丁目, 福井市, 福井県, 910-8660, 日本</desc>
        <extensions>
          <neighbourhood>中央三丁目</neighbourhood>
          <city>福井市</city>
          <province>福井県</province>
          <ISO3166-2-lvl4>JP-18</ISO3166-2-lvl4>
          <postcode>910-8660</postcode>
          <country>日本</country>
          <country_code>jp</country_code>
        </extensions>
      </trkpt>
      <trkpt lat="36.0611766" lon="136.2181251">
        <name>中央</name>
        <desc>中央, 福井市, 福井県, 910-0006, 日本</desc>
        <extensions>
          <quarter>中央</quarter>
          <city>福井市</city>
          <province>福井県</province>
          <ISO3166-2-lvl4>JP-18</ISO3166-2-lvl4>
          <postcode>910-0006</postcode>
          <country>日本</country>
          <country_code>jp</country_code>
        </extensions>
      </trkpt>
      <trkpt lat="36.0609083" lon="136.2205629">
        <name>中央一丁目</name>
        <desc>お食事処 ほていや, ガレリア元町, 中央一丁目, 福井市, 福井県, 910-0005, 日本</desc>
        <extensions>
          <amenity>お食事処 ほていや</amenity>
          <road>ガレリア元町</road>
          <neighbourhood>中央一丁目</neighbourhood>
          <city>福井市</city>
          <province>福井県</province>
          <ISO3166-2-lvl4>JP-18</ISO3166-2-lvl4>
          <postcode>910-0005</postcode>
          <country>日本</country>
          <country_code>jp</country_code>
        </extensions>
      </trkpt>
      <trkpt lat="36.0658171" lon="136.2272735">
        <name>大手一丁目</name>
        <desc>大手一丁目, 福井市, 福井県, 910-0853, 日本</desc>
        <extensions>
          <neighbourhood>大手一丁目</neighbourhood>
          <city>福井市</city>
          <province>福井県</province>
          <ISO3166-2-lvl4>JP-18</ISO3166-2-lvl4>
          <postcode>910-0853</postcode>
          <country>日本</country>
          <country_code>jp</country_code>
        </extensions>
      </trkpt>
      <trkpt lat="36.068834" lon="136.223609">
        <name>宝永三丁目</name>
        <desc>宝永三丁目, 福井市, 福井県, 910-8511, 日本</desc>
        <extensions>
          <neighbourhood>宝永三丁目</neighbourhood>
          <city>福井市</city>
          <province>福井県</province>
          <ISO3166-2-lvl4>JP-18</ISO3166-2-lvl4>
          <postcode>910-8511</postcode>
          <country>日本</country>
          <country_code>jp</country_code>
        </extensions>
      </trkpt>
      <trkpt lat="36.0687852" lon="136.2169893">
        <name>春山一丁目</name>
        <desc>春山一丁目, 福井市, 福井県, 910-8511, 日本</desc>
        <extensions>
          <neighbourhood>春山一丁目</neighbourhood>
          <city>福井市</city>
          <province>福井県</province>
          <ISO3166-2-lvl4>JP-18</ISO3166-2-lvl4>
          <postcode>910-8511</postcode>
          <country>日本</country>
          <country_code>jp</country_code>
        </extensions>
      </trkpt>
      <trkpt lat="36.0629616" lon="136.2275612">
        <name>日之出二丁目</name>
        <desc>日之出二丁目, 福井市, 福井県, 910-0853, 日本</desc>
        <extensions>
          <neighbourhood>日之出二丁目</neighbourhood>
          <city>福井市</city>
          <province>福井県</province>
          <ISO3166-2-lvl4>JP-18</ISO3166-2-lvl4>
          <postcode>910-0853</postcode>
          <country>日本</country>
          <country_code>jp</country_code>
        </extensions>
      </trkpt>
      <trkpt lat="36.0630483" lon="136.2297767">
        <name>日之出三丁目</name>
        <desc>日之出三丁目, 福井市, 福井県, 910-0853, 日本</desc>
        <extensions>
          <neighbourhood>日之出三丁目</neighbourhood>
          <city>福井市</city>
          <province>福井県</province>
          <ISO3166-2-lvl4>JP-18</ISO3166-2-lvl4>
          <postcode>910-0853</postcode>
          <country>日本</country>
          <country_code>jp</country_code>
        </extensions>
      </trkpt>
      <trkpt lat="36.0632348" lon="136.2328479">
        <name>日之出四丁目</name>
        <desc>日之出四丁目, 福井市, 福井県, 910-0853, 日本</desc>
        <extensions>
          <neighbourhood>日之出四丁目</neighbourhood>
          <city>福井市</city>
          <province>福井県</province>
          <ISO3166-2-lvl4>JP-18</ISO3166-2-lvl4>
          <postcode>910-0853</postcode>
          <country>日本</country>
          <country_code>jp</country_code>
        </extensions>
      </trkpt>
      <trkpt lat="36.0612812" lon="136.2327111">
        <name>城東一丁目</name>
        <desc>城東一丁目, 福井市, 福井県, 910-0853, 日本</desc>
        <extensions>
          <neighbourhood>城東一丁目</neighbourhood>
          <city>福井市</city>
          <province>福井県</province>
          <ISO3166-2-lvl4>JP-18</ISO3166-2-lvl4>
          <postcode>910-0853</postcode>
          <country>日本</country>
          <country_code>jp</country_code>
        </extensions>
      </trkpt>
      <trkpt lat="36.0616542" lon="136.2360826">
        <name>城東二丁目</name>
        <desc>城東二丁目, 福井市, 福井県, 910-0853, 日本</desc>
        <extensions>
          <neighbourhood>城東二丁目</neighbourhood>
          <city>福井市</city>
          <province>福井県</province>
          <ISO3166-2-lvl4>JP-18</ISO3166-2-lvl4>
          <postcode>910-0853</postcode>
          <country>日本</country>
          <country_code>jp</country_code>
        </extensions>
      </trkpt>
      <trkpt lat="36.0612465" lon="136.2388775">
        <name>城東三丁目</name>
        <desc>城東三丁目, 福井市, 福井県, 910-0853, 日本</desc>
        <extensions>
          <neighbourhood>城東三丁目</neighbourhood>
          <city>福井市</city>
          <province>福井県</province>
          <ISO3166-2-lvl4>JP-18</ISO3166-2-lvl4>
          <postcode>910-0853</postcode>
          <country>日本</country>
          <country_code>jp</country_code>
        </extensions>
      </trkpt>
      <trkpt lat="36.062103" lon="136.2412941">
        <name>松城町</name>
        <desc>松城町, 福井市, 福井県, 910-0851, 日本</desc>
        <extensions>
          <quarter>松城町</quarter>
          <city>福井市</city>
          <province>福井県</province>
          <ISO3166-2-lvl4>JP-18</ISO3166-2-lvl4>
          <postcode>910-0851</postcode>
          <country>日本</country>
          <country_code>jp</country_code>
        </extensions>
      </trkpt>
      <trkpt lat="36.0654355" lon="136.2399369">
        <name>米松一丁目</name>
        <desc>米松一丁目, 福井市, 福井県, 910-0851, 日本</desc>
        <extensions>
          <neighbourhood>米松一丁目</neighbourhood>
          <city>福井市</city>
          <province>福井県</province>
          <ISO3166-2-lvl4>JP-18</ISO3166-2-lvl4>
          <postcode>910-0851</postcode>
          <country>日本</country>
          <country_code>jp</country_code>
        </extensions>
      </trkpt>
      <trkpt lat="36.0656393" lon="136.2361926">
        <name>四ツ井一丁目</name>
        <desc>四ツ井一丁目, 福井市, 福井県, 910-0851, 日本</desc>
        <extensions>
          <neighbourhood>四ツ井一丁目</neighbourhood>
          <city>福井市</city>
          <province>福井県</province>
          <ISO3166-2-lvl4>JP-18</ISO3166-2-lvl4>
          <postcode>910-0851</postcode>
          <country>日本</country>
          <country_code>jp</country_code>
        </extensions>
      </trkpt>
      <trkpt lat="36.066654" lon="136.2322712">
        <name>日之出五丁目</name>
        <desc>日之出五丁目, 福井市, 福井県, 910-0853, 日本</desc>
        <extensions>
          <neighbourhood>日之出五丁目</neighbourhood>
          <city>福井市</city>
          <province>福井県</province>
          <ISO3166-2-lvl4>JP-18</ISO3166-2-lvl4>
          <postcode>910-0853</postcode>
          <country>日本</country>
          <country_code>jp</country_code>
        </extensions>
      </trkpt>
      <trkpt lat="36.0685847" lon="136.2300128">
        <name>宝永一丁目</name>
        <desc>宝永一丁目, 福井市, 福井県, 910-0845, 日本</desc>
        <extensions>
          <neighbourhood>宝永一丁目</neighbourhood>
          <city>福井市</city>
          <province>福井県</province>
          <ISO3166-2-lvl4>JP-18</ISO3166-2-lvl4>
          <postcode>910-0845</postcode>
          <country>日本</country>
          <country_code>jp</country_code>
        </extensions>
      </trkpt>
      <trkpt lat="36.0582716" lon="136.2286287">
        <name>御幸一丁目</name>
        <desc>御幸一丁目, 福井市, 福井県, 910-0853, 日本</desc>
        <extensions>
          <neighbourhood>御幸一丁目</neighbourhood>
          <city>福井市</city>
          <province>福井県</province>
          <ISO3166-2-lvl4>JP-18</ISO3166-2-lvl4>
          <postcode>910-0853</postcode>
          <country>日本</country>
          <country_code>jp</country_code>
        </extensions>
      </trkpt>
      <trkpt lat="36.0576406" lon="136.2323382">
        <name>御幸二丁目</name>
        <desc>御幸二丁目, 福井市, 福井県, 910-0842, 日本</desc>
        <extensions>
          <neighbourhood>御幸二丁目</neighbourhood>
          <city>福井市</city>
          <province>福井県</province>
          <ISO3166-2-lvl4>JP-18</ISO3166-2-lvl4>
          <postcode>910-0842</postcode>
          <country>日本</country>
          <country_code>jp</country_code>
        </extensions>
      </trkpt>
      <trkpt lat="36.0555156" lon="136.2361068">
        <name>御幸三丁目</name>
        <desc>御幸三丁目, 福井市, 福井県, 910-0842, 日本</desc>
        <extensions>
          <neighbourhood>御幸三丁目</neighbourhood>
          <city>福井市</city>
          <province>福井県</province>
          <ISO3166-2-lvl4>JP-18</ISO3166-2-lvl4>
          <postcode>910-0842</postcode>
          <country>日本</country>
          <country_code>jp</country_code>
        </extensions>
      </trkpt>
      <trkpt lat="36.0585188" lon="136.2381425">
        <name>城東四丁目</name>
        <desc>城東四丁目, 福井市, 福井県, 910-0842, 日本</desc>
        <extensions>
          <neighbourhood>城東四丁目</neighbourhood>
          <city>福井市</city>
          <province>福井県</province>
          <ISO3166-2-lvl4>JP-18</ISO3166-2-lvl4>
          <postcode>910-0842</postcode>
          <country>日本</country>
          <country_code>jp</country_code>
        </extensions>
      </trkpt>
      <trkpt lat="36.0555568" lon="136.2436545">
        <name>成和一丁目</name>
        <desc>成和一丁目, 福井市, 福井県, 910-0842, 日本</desc>
        <extensions>
          <neighbourhood>成和一丁目</neighbourhood>
          <city>福井市</city>
          <province>福井県</province>
          <ISO3166-2-lvl4>JP-18</ISO3166-2-lvl4>
          <postcode>910-0842</postcode>
          <country>日本</country>
          <country_code>jp</country_code>
        </extensions>
      </trkpt>
      <trkpt lat="36.069015" lon="136.2380031">
        <name>四ツ井二丁目</name>
        <desc>福井停車場米松線, 大手二丁目, 福井市, 福井県, 910-0003, 日本</desc>
        <extensions>
          <road>福井停車場米松線</road>
          <neighbourhood>大手二丁目</neighbourhood>
          <city>福井市</city>
          <province>福井県</province>
          <ISO3166-2-lvl4>JP-18</ISO3166-2-lvl4>
          <postcode>910-0003</postcode>
          <country>日本</country>
          <country_code>jp</country_code>
        </extensions>
      </trkpt>
      <trkpt lat="36.0709164" lon="136.2378341">
        <name>志比口二丁目</name>
        <desc>志比口二丁目, 福井市, 福井県, 910-0851, 日本</desc>
        <extensions>
          <neighbourhood>志比口二丁目</neighbourhood>
          <city>福井市</city>
          <province>福井県</province>
          <ISO3166-2-lvl4>JP-18</ISO3166-2-lvl4>
          <postcode>910-0851</postcode>
          <country>日本</country>
          <country_code>jp</country_code>
        </extensions>
      </trkpt>
      <trkpt lat="36.0726074" lon="136.2361658">
        <name>志比口三丁目</name>
        <desc>志比口三丁目, 福井市, 福井県, 910-0003, 日本</desc>
        <extensions>
          <neighbourhood>志比口三丁目</neighbourhood>
          <city>福井市</city>
          <province>福井県</province>
          <ISO3166-2-lvl4>JP-18</ISO3166-2-lvl4>
          <postcode>910-0003</postcode>
          <country>日本</country>
          <country_code>jp</country_code>
        </extensions>
      </trkpt>
      <trkpt lat="36.0738301" lon="136.2342292">
        <name>松本上町</name>
        <desc>松本上町, 福井市, 福井県, 910-0003, 日本</desc>
        <extensions>
          <quarter>松本上町</quarter>
          <city>福井市</city>
          <province>福井県</province>
          <ISO3166-2-lvl4>JP-18</ISO3166-2-lvl4>
          <postcode>910-0003</postcode>
          <country>日本</country>
          <country_code>jp</country_code>
        </extensions>
      </trkpt>
      <trkpt lat="36.0740574" lon="136.2313609">
        <name>松本一丁目</name>
        <desc>松本一丁目, 福井市, 福井県, 910-0003, 日本</desc>
        <extensions>
          <neighbourhood>松本一丁目</neighbourhood>
          <city>福井市</city>
          <province>福井県</province>
          <ISO3166-2-lvl4>JP-18</ISO3166-2-lvl4>
          <postcode>910-0003</postcode>
          <country>日本</country>
          <country_code>jp</country_code>
        </extensions>
      </trkpt>
      <trkpt lat="36.0739555" lon="136.2275456">
        <name>松本二丁目</name>
        <desc>松本二丁目, 福井市, 福井県, 910-0003, 日本</desc>
        <extensions>
          <neighbourhood>松本二丁目</neighbourhood>
          <city>福井市</city>
          <province>福井県</province>
          <ISO3166-2-lvl4>JP-18</ISO3166-2-lvl4>
          <postcode>910-0003</postcode>
          <country>日本</country>
          <country_code>jp</country_code>
        </extensions>
      </trkpt>
      <trkpt lat="36.0788834" lon="136.2302703">
        <name>町屋二丁目</name>
        <desc>町屋二丁目, 福井市, 福井県, 910-0014, 日本</desc>
        <extensions>
          <neighbourhood>町屋二丁目</neighbourhood>
          <city>福井市</city>
          <province>福井県</province>
          <ISO3166-2-lvl4>JP-18</ISO3166-2-lvl4>
          <postcode>910-0014</postcode>
          <country>日本</country>
          <country_code>jp</country_code>
        </extensions>
      </trkpt>
      <trkpt lat="36.0788097" lon="136.2327406">
        <name>町屋一丁目</name>
        <desc>町屋一丁目, 福井市, 福井県, 910-0003, 日本</desc>
        <extensions>
          <neighbourhood>町屋一丁目</neighbourhood>
          <city>福井市</city>
          <province>福井県</province>
          <ISO3166-2-lvl4>JP-18</ISO3166-2-lvl4>
          <postcode>910-0003</postcode>
          <country>日本</country>
          <country_code>jp</country_code>
        </extensions>
      </trkpt>
      <trkpt lat="36.0794795" lon="136.2354523">
        <name>西開発二丁目</name>
        <desc>西開発二丁目, 福井市, 福井県, 910-0003, 日本</desc>
        <extensions>
          <neighbourhood>西開発二丁目</neighbourhood>
          <city>福井市</city>
          <province>福井県</province>
          <ISO3166-2-lvl4>JP-18</ISO3166-2-lvl4>
          <postcode>910-0003</postcode>
          <country>日本</country>
          <country_code>jp</country_code>
        </extensions>
      </trkpt>
      <trkpt lat="36.0752696" lon="136.2365091">
        <name>西開発一丁目</name>
        <desc>西開発一丁目, 福井市, 福井県, 910-0003, 日本</desc>
        <extensions>
          <neighbourhood>西開発一丁目</neighbourhood>
          <city>福井市</city>
          <province>福井県</province>
          <ISO3166-2-lvl4>JP-18</ISO3166-2-lvl4>
          <postcode>910-0003</postcode>
          <country>日本</country>
          <country_code>jp</country_code>
        </extensions>
      </trkpt>
      <trkpt lat="36.0765465" lon="136.2408355">
        <name>開発一丁目</name>
        <desc>国道8号, 丸山一丁目, 福井市, 福井県, 910-0851, 日本</desc>
        <extensions>
          <road>国道8号</road>
          <neighbourhood>丸山一丁目</neighbourhood>
          <city>福井市</city>
          <province>福井県</province>
          <ISO3166-2-lvl4>JP-18</ISO3166-2-lvl4>
          <postcode>910-0851</postcode>
          <country>日本</country>
          <country_code>jp</country_code>
        </extensions>
      </trkpt>
      <trkpt lat="36.0785452" lon="136.2412378">
        <name>開発二丁目</name>
        <desc>開発二丁目, 福井市, 福井県, 910-0003, 日本</desc>
        <extensions>
          <neighbourhood>開発二丁目</neighbourhood>
          <city>福井市</city>
          <province>福井県</province>
          <ISO3166-2-lvl4>JP-18</ISO3166-2-lvl4>
          <postcode>910-0003</postcode>
          <country>日本</country>
          <country_code>jp</country_code>
        </extensions>
      </trkpt>
      <trkpt lat="36.0803683" lon="136.2417233">
        <name>開発三丁目</name>
        <desc>開発三丁目, 福井市, 福井県, 910-0003, 日本</desc>
        <extensions>
          <neighbourhood>開発三丁目</neighbourhood>
          <city>福井市</city>
          <province>福井県</province>
          <ISO3166-2-lvl4>JP-18</ISO3166-2-lvl4>
          <postcode>910-0003</postcode>
          <country>日本</country>
          <country_code>jp</country_code>
        </extensions>
      </trkpt>
      <trkpt lat="36.0746193" lon="136.2416911">
        <name>長本町</name>
        <desc>長本町, 福井市, 福井県, 910-0851, 日本</desc>
        <extensions>
          <quarter>長本町</quarter>
          <city>福井市</city>
          <province>福井県</province>
          <ISO3166-2-lvl4>JP-18</ISO3166-2-lvl4>
          <postcode>910-0851</postcode>
          <country>日本</country>
          <country_code>jp</country_code>
        </extensions>
      </trkpt>
      <trkpt lat="36.0748057" lon="136.2436196">
        <name>丸山一丁目</name>
        <desc>丸山一丁目, 福井市, 福井県, 910-0851, 日本</desc>
        <extensions>
          <neighbourhood>丸山一丁目</neighbourhood>
          <city>福井市</city>
          <province>福井県</province>
          <ISO3166-2-lvl4>JP-18</ISO3166-2-lvl4>
          <postcode>910-0851</postcode>
          <country>日本</country>
          <country_code>jp</country_code>
        </extensions>
      </trkpt>
      <trkpt lat="36.0697934" lon="136.2415945">
        <name>米松二丁目</name>
        <desc>米松二丁目, 福井市, 福井県, 910-0851, 日本</desc>
        <extensions>
          <neighbourhood>米松二丁目</neighbourhood>
          <city>福井市</city>
          <province>福井県</province>
          <ISO3166-2-lvl4>JP-18</ISO3166-2-lvl4>
          <postcode>910-0851</postcode>
          <country>日本</country>
          <country_code>jp</country_code>
        </extensions>
      </trkpt>
      <trkpt lat="36.0692384" lon="136.2337249">
        <name>志比口一丁目</name>
        <desc>志比口一丁目, 福井市, 福井県, 910-0003, 日本</desc>
        <extensions>
          <neighbourhood>志比口一丁目</neighbourhood>
          <city>福井市</city>
          <province>福井県</province>
          <ISO3166-2-lvl4>JP-18</ISO3166-2-lvl4>
          <postcode>910-0003</postcode>
          <country>日本</country>
          <country_code>jp</country_code>
        </extensions>
      </trkpt>
      <trkpt lat="36.0826097" lon="136.2346905">
        <name>西開発三丁目</name>
        <desc>西開発三丁目, 福井市, 福井県, 910-0003, 日本</desc>
        <extensions>
          <neighbourhood>西開発三丁目</neighbourhood>
          <city>福井市</city>
          <province>福井県</province>
          <ISO3166-2-lvl4>JP-18</ISO3166-2-lvl4>
          <postcode>910-0003</postcode>
          <country>日本</country>
          <country_code>jp</country_code>
        </extensions>
      </trkpt>
      <trkpt lat="36.0827961" lon="136.2380218">
        <name>開発四丁目</name>
        <desc>開発四丁目, 福井市, 福井県, 910-0003, 日本</desc>
        <extensions>
          <neighbourhood>開発四丁目</neighbourhood>
          <city>福井市</city>
          <province>福井県</province>
          <ISO3166-2-lvl4>JP-18</ISO3166-2-lvl4>
          <postcode>910-0003</postcode>
          <country>日本</country>
          <country_code>jp</country_code>
        </extensions>
      </trkpt>
      <trkpt lat="36.0835418" lon="136.243118">
        <name>開発町</name>
        <desc>開発町, 福井市, 福井県, 910-0003, 日本</desc>
        <extensions>
          <quarter>開発町</quarter>
          <city>福井市</city>
          <province>福井県</province>
          <ISO3166-2-lvl4>JP-18</ISO3166-2-lvl4>
          <postcode>910-0003</postcode>
          <country>日本</country>
          <country_code>jp</country_code>
        </extensions>
      </trkpt>
      <trkpt lat="36.0860693" lon="136.241954">
        <name>開発五丁目</name>
        <desc>国道416号, 若栄町, 福井市, 福井県, 910-0836, 日本</desc>
        <extensions>
          <road>国道416号</road>
          <quarter>若栄町</quarter>
          <city>福井市</city>
          <province>福井県</province>
          <ISO3166-2-lvl4>JP-18</ISO3166-2-lvl4>
          <postcode>910-0836</postcode>
          <country>日本</country>
          <country_code>jp</country_code>
        </extensions>
      </trkpt>
      <trkpt lat="36.0902851" lon="136.2396258">
        <name>高木中央三丁目</name>
        <desc>高木中央三丁目, 福井市, 福井県, 910-8588, 日本</desc>
        <extensions>
          <neighbourhood>高木中央三丁目</neighbourhood>
          <city>福井市</city>
          <province>福井県</province>
          <ISO3166-2-lvl4>JP-18</ISO3166-2-lvl4>
          <postcode>910-8588</postcode>
          <country>日本</country>
          <country_code>jp</country_code>
        </extensions>
      </trkpt>
      <trkpt lat="36.0860346" lon="136.233564">
        <name>西開発四丁目</name>
        <desc>(株)ティーツゥーテック, 国道416号, 西開発四丁目, 福井市, 福井県, 910-0014, 日本</desc>
        <extensions>
          <craft>(株)ティーツゥーテック</craft>
          <road>国道416号</road>
          <neighbourhood>西開発四丁目</neighbourhood>
          <city>福井市</city>
          <province>福井県</province>
          <ISO3166-2-lvl4>JP-18</ISO3166-2-lvl4>
          <postcode>910-0014</postcode>
          <country>日本</country>
          <country_code>jp</country_code>
        </extensions>
      </trkpt>
      <trkpt lat="36.0826747" lon="136.2313297">
        <name>大願寺一丁目</name>
        <desc>大願寺二丁目, 福井市, 福井県, 910-0014, 日本</desc>
        <extensions>
          <neighbourhood>大願寺二丁目</neighbourhood>
          <city>福井市</city>
          <province>福井県</province>
          <ISO3166-2-lvl4>JP-18</ISO3166-2-lvl4>
          <postcode>910-0014</postcode>
          <country>日本</country>
          <country_code>jp</country_code>
        </extensions>
      </trkpt>
      <trkpt lat="36.0826466" lon="136.2297472">
        <name>大願寺二丁目</name>
        <desc>大願寺二丁目, 福井市, 福井県, 910-0014, 日本</desc>
        <extensions>
          <neighbourhood>大願寺二丁目</neighbourhood>
          <city>福井市</city>
          <province>福井県</province>
          <ISO3166-2-lvl4>JP-18</ISO3166-2-lvl4>
          <postcode>910-0014</postcode>
          <country>日本</country>
          <country_code>jp</country_code>
        </extensions>
      </trkpt>
      <trkpt lat="36.0827159" lon="136.2280172">
        <name>大願寺三丁目</name>
        <desc>大願寺三丁目, 福井市, 福井県, 910-0014, 日本</desc>
        <extensions>
          <neighbourhood>大願寺三丁目</neighbourhood>
          <city>福井市</city>
          <province>福井県</province>
          <ISO3166-2-lvl4>JP-18</ISO3166-2-lvl4>
          <postcode>910-0014</postcode>
          <country>日本</country>
          <country_code>jp</country_code>
        </extensions>
      </trkpt>
      <trkpt lat="36.0873091" lon="136.2288111">
        <name>二の宮一丁目</name>
        <desc>二の宮一丁目, 福井市, 福井県, 910-0014, 日本</desc>
        <extensions>
          <neighbourhood>二の宮一丁目</neighbourhood>
          <city>福井市</city>
          <province>福井県</province>
          <ISO3166-2-lvl4>JP-18</ISO3166-2-lvl4>
          <postcode>910-0014</postcode>
          <country>日本</country>
          <country_code>jp</country_code>
        </extensions>
      </trkpt>
      <trkpt lat="36.0905344" lon="136.2314022">
        <name>高木中央一丁目</name>
        <desc>高木中央一丁目, 福井市, 福井県, 910-0014, 日本</desc>
        <extensions>
          <neighbourhood>高木中央一丁目</neighbourhood>
          <city>福井市</city>
          <province>福井県</province>
          <ISO3166-2-lvl4>JP-18</ISO3166-2-lvl4>
          <postcode>910-0014</postcode>
          <country>日本</country>
          <country_code>jp</country_code>
        </extensions>
      </trkpt>
      <trkpt lat="36.0929554" lon="136.2281218">
        <name>高木二丁目</name>
        <desc>高木二丁目, 福井市, 福井県, 910-0123, 日本</desc>
        <extensions>
          <neighbourhood>高木二丁目</neighbourhood>
          <city>福井市</city>
          <province>福井県</province>
          <ISO3166-2-lvl4>JP-18</ISO3166-2-lvl4>
          <postcode>910-0123</postcode>
          <country>日本</country>
          <country_code>jp</country_code>
        </extensions>
      </trkpt>
      <trkpt lat="36.0959615" lon="136.2331188">
        <name>高木町</name>
        <desc>高木町, 福井市, 福井県, 910-8588, 日本</desc>
        <extensions>
          <quarter>高木町</quarter>
          <city>福井市</city>
          <province>福井県</province>
          <ISO3166-2-lvl4>JP-18</ISO3166-2-lvl4>
          <postcode>910-8588</postcode>
          <country>日本</country>
          <country_code>jp</country_code>
        </extensions>
      </trkpt>
      <trkpt lat="36.0907988" lon="136.2360102">
        <name>高木中央二丁目</name>
        <desc>高木中央二丁目, 福井市, 福井県, 910-0014, 日本</desc>
        <extensions>
          <neighbourhood>高木中央二丁目</neighbourhood>
          <city>福井市</city>
          <province>福井県</province>
          <ISO3166-2-lvl4>JP-18</ISO3166-2-lvl4>
          <postcode>910-0014</postcode>
          <country>日本</country>
          <country_code>jp</country_code>
        </extensions>
      </trkpt>
      <trkpt lat="36.090465" lon="136.2437779">
        <name>高柳一丁目</name>
        <desc>福井森田丸岡線, 高柳一丁目, 福井市, 福井県, 910-0804, 日本</desc>
        <extensions>
          <road>福井森田丸岡線</road>
          <neighbourhood>高柳一丁目</neighbourhood>
          <city>福井市</city>
          <province>福井県</province>
          <ISO3166-2-lvl4>JP-18</ISO3166-2-lvl4>
          <postcode>910-0804</postcode>
          <country>日本</country>
          <country_code>jp</country_code>
        </extensions>
      </trkpt>
      <trkpt lat="36.0879919" lon="136.2259921">
        <name>幾代二丁目</name>
        <desc>幾代二丁目, 福井市, 福井県, 910-0014, 日本</desc>
        <extensions>
          <neighbourhood>幾代二丁目</neighbourhood>
          <city>福井市</city>
          <province>福井県</province>
          <ISO3166-2-lvl4>JP-18</ISO3166-2-lvl4>
          <postcode>910-0014</postcode>
          <country>日本</country>
          <country_code>jp</country_code>
        </extensions>
      </trkpt>
      <trkpt lat="36.0855967" lon="136.2242192">
        <name>二の宮二丁目</name>
        <desc>二の宮二丁目, 福井市, 福井県, 910-0014, 日本</desc>
        <extensions>
          <neighbourhood>二の宮二丁目</neighbourhood>
          <city>福井市</city>
          <province>福井県</province>
          <ISO3166-2-lvl4>JP-18</ISO3166-2-lvl4>
          <postcode>910-0014</postcode>
          <country>日本</country>
          <country_code>jp</country_code>
        </extensions>
      </trkpt>
      <trkpt lat="36.0829219" lon="136.2255657">
        <name>大宮一丁目</name>
        <desc>餃子の王将, 福井丸岡線, 大宮一丁目, 福井市, 福井県, 910-0014, 日本</desc>
        <extensions>
          <amenity>餃子の王将</amenity>
          <road>福井丸岡線</road>
          <neighbourhood>大宮一丁目</neighbourhood>
          <city>福井市</city>
          <province>福井県</province>
          <ISO3166-2-lvl4>JP-18</ISO3166-2-lvl4>
          <postcode>910-0014</postcode>
          <country>日本</country>
          <country_code>jp</country_code>
        </extensions>
      </trkpt>
      <trkpt lat="36.0854103" lon="136.2182915">
        <name>二の宮三丁目</name>
        <desc>二の宮三丁目, 福井市, 福井県, 910-0015, 日本</desc>
        <extensions>
          <neighbourhood>二の宮三丁目</neighbourhood>
          <city>福井市</city>
          <province>福井県</province>
          <ISO3166-2-lvl4>JP-18</ISO3166-2-lvl4>
          <postcode>910-0015</postcode>
          <country>日本</country>
          <country_code>jp</country_code>
        </extensions>
      </trkpt>
      <trkpt lat="36.0853063" lon="136.2122673">
        <name>二の宮四丁目</name>
        <desc>二の宮四丁目, 福井市, 福井県, 910-0015, 日本</desc>
        <extensions>
          <neighbourhood>二の宮四丁目</neighbourhood>
          <city>福井市</city>
          <province>福井県</province>
          <ISO3166-2-lvl4>JP-18</ISO3166-2-lvl4>
          <postcode>910-0015</postcode>
          <country>日本</country>
          <country_code>jp</country_code>
        </extensions>
      </trkpt>
      <trkpt lat="36.0883062" lon="136.2121627">
        <name>新田塚町</name>
        <desc>新田塚町, 福井市, 福井県, 910-0015, 日本</desc>
        <extensions>
          <quarter>新田塚町</quarter>
          <city>福井市</city>
          <province>福井県</province>
          <ISO3166-2-lvl4>JP-18</ISO3166-2-lvl4>
          <postcode>910-0015</postcode>
          <country>日本</country>
          <country_code>jp</country_code>
        </extensions>
      </trkpt>
      <trkpt lat="36.0906947" lon="136.2116075">
        <name>灯明寺一丁目</name>
        <desc>灯明寺一丁目, 福井市, 福井県, 910-0015, 日本</desc>
        <extensions>
          <neighbourhood>灯明寺一丁目</neighbourhood>
          <city>福井市</city>
          <province>福井県</province>
          <ISO3166-2-lvl4>JP-18</ISO3166-2-lvl4>
          <postcode>910-0015</postcode>
          <country>日本</country>
          <country_code>jp</country_code>
        </extensions>
      </trkpt>
      <trkpt lat="36.09374" lon="136.2126777">
        <name>灯明寺二丁目</name>
        <desc>灯明寺二丁目, 福井市, 福井県, 910-0015, 日本</desc>
        <extensions>
          <neighbourhood>灯明寺二丁目</neighbourhood>
          <city>福井市</city>
          <province>福井県</province>
          <ISO3166-2-lvl4>JP-18</ISO3166-2-lvl4>
          <postcode>910-0015</postcode>
          <country>日本</country>
          <country_code>jp</country_code>
        </extensions>
      </trkpt>
      <trkpt lat="36.0930746" lon="136.2180769">
        <name>灯明寺町</name>
        <desc>灯明寺町, 福井市, 福井県, 910-0015, 日本</desc>
        <extensions>
          <quarter>灯明寺町</quarter>
          <city>福井市</city>
          <province>福井県</province>
          <ISO3166-2-lvl4>JP-18</ISO3166-2-lvl4>
          <postcode>910-0015</postcode>
          <country>日本</country>
          <country_code>jp</country_code>
        </extensions>
      </trkpt>
      <trkpt lat="36.0890171" lon="136.2181038">
        <name>経田二丁目</name>
        <desc>経田二丁目, 福井市, 福井県, 910-0015, 日本</desc>
        <extensions>
          <neighbourhood>経田二丁目</neighbourhood>
          <city>福井市</city>
          <province>福井県</province>
          <ISO3166-2-lvl4>JP-18</ISO3166-2-lvl4>
          <postcode>910-0015</postcode>
          <country>日本</country>
          <country_code>jp</country_code>
        </extensions>
      </trkpt>
      <trkpt lat="36.0892252" lon="136.2222102">
        <name>経田一丁目</name>
