<gpx version="1.1" creator="PowerShell-Nominatim">
  <trk>
    <trkseg>
      <trkpt lat="35.337432" lon="136.693975">
        <name>小熊町天王二丁目</name>
        <desc>小熊町天王二丁目, 羽島市, 岐阜県, 501-6295, 日本</desc>
        <extensions>
          <neighbourhood>小熊町天王二丁目</neighbourhood>
          <city>羽島市</city>
          <province>岐阜県</province>
          <ISO3166-2-lvl4>JP-21</ISO3166-2-lvl4>
          <postcode>501-6295</postcode>
          <country>日本</country>
          <country_code>jp</country_code>
        </extensions>
      </trkpt>
      <trkpt lat="35.335216" lon="136.698712">
        <name>福寿町間島六丁目</name>
        <desc>福寿町間島六丁目, 羽島市, 岐阜県, 501-6295, 日本</desc>
        <extensions>
          <neighbourhood>福寿町間島六丁目</neighbourhood>
          <city>羽島市</city>
          <province>岐阜県</province>
          <ISO3166-2-lvl4>JP-21</ISO3166-2-lvl4>
          <postcode>501-6295</postcode>
          <country>日本</country>
          <country_code>jp</country_code>
        </extensions>
      </trkpt>
      <trkpt lat="35.336884" lon="136.699455">
        <name>小熊町川口一丁目</name>
        <desc>小熊町川口一丁目, 羽島市, 岐阜県, 501-6295, 日本</desc>
        <extensions>
          <neighbourhood>小熊町川口一丁目</neighbourhood>
          <city>羽島市</city>
          <province>岐阜県</province>
          <ISO3166-2-lvl4>JP-21</ISO3166-2-lvl4>
          <postcode>501-6295</postcode>
          <country>日本</country>
          <country_code>jp</country_code>
        </extensions>
      </trkpt>
      <trkpt lat="35.335485" lon="136.703132">
        <name>小熊町五丁目</name>
        <desc>小熊町五丁目, 羽島市, 岐阜県, 501-6295, 日本</desc>
        <extensions>
          <neighbourhood>小熊町五丁目</neighbourhood>
          <city>羽島市</city>
          <province>岐阜県</province>
          <ISO3166-2-lvl4>JP-21</ISO3166-2-lvl4>
          <postcode>501-6295</postcode>
          <country>日本</country>
          <country_code>jp</country_code>
        </extensions>
      </trkpt>
      <trkpt lat="35.335282" lon="136.707896">
        <name>小熊町島三丁目</name>
        <desc>小熊町島三丁目, 羽島市, 岐阜県, 501-6295, 日本</desc>
        <extensions>
          <neighbourhood>小熊町島三丁目</neighbourhood>
          <city>羽島市</city>
          <province>岐阜県</province>
          <ISO3166-2-lvl4>JP-21</ISO3166-2-lvl4>
          <postcode>501-6295</postcode>
          <country>日本</country>
          <country_code>jp</country_code>
        </extensions>
      </trkpt>
      <trkpt lat="35.336388" lon="136.70953">
        <name>小熊町島四丁目</name>
        <desc>小熊町島四丁目, 羽島市, 岐阜県, 501-6295, 日本</desc>
        <extensions>
          <neighbourhood>小熊町島四丁目</neighbourhood>
          <city>羽島市</city>
          <province>岐阜県</province>
          <ISO3166-2-lvl4>JP-21</ISO3166-2-lvl4>
          <postcode>501-6295</postcode>
          <country>日本</country>
          <country_code>jp</country_code>
        </extensions>
      </trkpt>
      <trkpt lat="35.339954" lon="136.705419">
        <name>小熊町四丁目</name>
        <desc>小熊町四丁目, 羽島市, 岐阜県, 501-6295, 日本</desc>
        <extensions>
          <neighbourhood>小熊町四丁目</neighbourhood>
          <city>羽島市</city>
          <province>岐阜県</province>
          <ISO3166-2-lvl4>JP-21</ISO3166-2-lvl4>
          <postcode>501-6295</postcode>
          <country>日本</country>
          <country_code>jp</country_code>
        </extensions>
      </trkpt>
      <trkpt lat="35.345568" lon="136.703631">
        <name>小熊町三丁目</name>
        <desc>小熊町三丁目, 羽島市, 岐阜県, 501-6123, 日本</desc>
        <extensions>
          <neighbourhood>小熊町三丁目</neighbourhood>
          <city>羽島市</city>
          <province>岐阜県</province>
          <ISO3166-2-lvl4>JP-21</ISO3166-2-lvl4>
          <postcode>501-6123</postcode>
          <country>日本</country>
          <country_code>jp</country_code>
        </extensions>
      </trkpt>
      <trkpt lat="35.350263" lon="136.69995">
        <name>小熊町二丁目</name>
        <desc>羽島茶屋新田線, 小熊町二丁目, 羽島市, 岐阜県, 503-0103, 日本</desc>
        <extensions>
          <road>羽島茶屋新田線</road>
          <neighbourhood>小熊町二丁目</neighbourhood>
          <city>羽島市</city>
          <province>岐阜県</province>
          <ISO3166-2-lvl4>JP-21</ISO3166-2-lvl4>
          <postcode>503-0103</postcode>
          <country>日本</country>
          <country_code>jp</country_code>
        </extensions>
      </trkpt>
      <trkpt lat="35.353518" lon="136.701316">
        <name>小熊町一丁目</name>
        <desc>小熊町一丁目, 羽島市, 岐阜県, 501-6123, 日本</desc>
        <extensions>
          <neighbourhood>小熊町一丁目</neighbourhood>
          <city>羽島市</city>
          <province>岐阜県</province>
          <ISO3166-2-lvl4>JP-21</ISO3166-2-lvl4>
          <postcode>501-6123</postcode>
          <country>日本</country>
          <country_code>jp</country_code>
        </extensions>
      </trkpt>
      <trkpt lat="35.344458" lon="136.71686">
        <name>足近町三丁目</name>
        <desc>足近町三丁目, 羽島市, 岐阜県, 501-6123, 日本</desc>
        <extensions>
          <neighbourhood>足近町三丁目</neighbourhood>
          <city>羽島市</city>
          <province>岐阜県</province>
          <ISO3166-2-lvl4>JP-21</ISO3166-2-lvl4>
          <postcode>501-6123</postcode>
          <country>日本</country>
          <country_code>jp</country_code>
        </extensions>
      </trkpt>
      <trkpt lat="35.348572" lon="136.72057">
        <name>足近町二丁目</name>
        <desc>足近町二丁目, 羽島市, 岐阜県, 501-6123, 日本</desc>
        <extensions>
          <neighbourhood>足近町二丁目</neighbourhood>
          <city>羽島市</city>
          <province>岐阜県</province>
          <ISO3166-2-lvl4>JP-21</ISO3166-2-lvl4>
          <postcode>501-6123</postcode>
          <country>日本</country>
          <country_code>jp</country_code>
        </extensions>
      </trkpt>
      <trkpt lat="35.339061" lon="136.721694">
        <name>足近町七丁目</name>
        <desc>岐阜南濃線, 小熊町足近新田, 羽島市, 岐阜県, 501-6295, 日本</desc>
        <extensions>
          <road>岐阜南濃線</road>
          <quarter>小熊町足近新田</quarter>
          <city>羽島市</city>
          <province>岐阜県</province>
          <ISO3166-2-lvl4>JP-21</ISO3166-2-lvl4>
          <postcode>501-6295</postcode>
          <country>日本</country>
          <country_code>jp</country_code>
        </extensions>
      </trkpt>
      <trkpt lat="35.337721" lon="136.723563">
        <name>足近町小荒井一丁目</name>
        <desc>足近町小荒井一丁目, 羽島市, 岐阜県, 501-6295, 日本</desc>
        <extensions>
          <neighbourhood>足近町小荒井一丁目</neighbourhood>
          <city>羽島市</city>
          <province>岐阜県</province>
          <ISO3166-2-lvl4>JP-21</ISO3166-2-lvl4>
          <postcode>501-6295</postcode>
          <country>日本</country>
          <country_code>jp</country_code>
        </extensions>
      </trkpt>
      <trkpt lat="35.335912" lon="136.721515">
        <name>足近町小荒井二丁目</name>
        <desc>足近町小荒井二丁目, 羽島市, 岐阜県, 501-6295, 日本</desc>
        <extensions>
          <neighbourhood>足近町小荒井二丁目</neighbourhood>
          <city>羽島市</city>
          <province>岐阜県</province>
          <ISO3166-2-lvl4>JP-21</ISO3166-2-lvl4>
          <postcode>501-6295</postcode>
          <country>日本</country>
          <country_code>jp</country_code>
        </extensions>
      </trkpt>
      <trkpt lat="35.338985" lon="136.715349">
        <name>足近町四丁目</name>
        <desc>足近町四丁目, 羽島市, 岐阜県, 501-6295, 日本</desc>
        <extensions>
          <neighbourhood>足近町四丁目</neighbourhood>
          <city>羽島市</city>
          <province>岐阜県</province>
          <ISO3166-2-lvl4>JP-21</ISO3166-2-lvl4>
          <postcode>501-6295</postcode>
          <country>日本</country>
          <country_code>jp</country_code>
        </extensions>
      </trkpt>
      <trkpt lat="35.333862" lon="136.733866">
        <name>正木町森十六丁目</name>
        <desc>正木町森十六丁目, 羽島市, 岐阜県, 501-6295, 日本</desc>
        <extensions>
          <neighbourhood>正木町森十六丁目</neighbourhood>
          <city>羽島市</city>
          <province>岐阜県</province>
          <ISO3166-2-lvl4>JP-21</ISO3166-2-lvl4>
          <postcode>501-6295</postcode>
          <country>日本</country>
          <country_code>jp</country_code>
        </extensions>
      </trkpt>
      <trkpt lat="35.334085" lon="136.73633">
        <name>正木町森十五丁目</name>
        <desc>正木町大浦新田一丁目, 羽島市, 岐阜県, 501-6062, 日本</desc>
        <extensions>
          <neighbourhood>正木町大浦新田一丁目</neighbourhood>
          <city>羽島市</city>
          <province>岐阜県</province>
          <ISO3166-2-lvl4>JP-21</ISO3166-2-lvl4>
          <postcode>501-6062</postcode>
          <country>日本</country>
          <country_code>jp</country_code>
        </extensions>
      </trkpt>
      <trkpt lat="35.332443" lon="136.736568">
        <name>正木町大浦新田四丁目</name>
        <desc>正木町大浦新田四丁目, 羽島市, 岐阜県, 501-6295, 日本</desc>
        <extensions>
          <neighbourhood>正木町大浦新田四丁目</neighbourhood>
          <city>羽島市</city>
          <province>岐阜県</province>
          <ISO3166-2-lvl4>JP-21</ISO3166-2-lvl4>
          <postcode>501-6295</postcode>
          <country>日本</country>
          <country_code>jp</country_code>
        </extensions>
      </trkpt>
      <trkpt lat="35.331921" lon="136.737952">
        <name>正木町大浦新田五丁目</name>
        <desc>正木町大浦新田五丁目, 羽島市, 岐阜県, 494-0003, 日本</desc>
        <extensions>
          <neighbourhood>正木町大浦新田五丁目</neighbourhood>
          <city>羽島市</city>
          <province>岐阜県</province>
          <ISO3166-2-lvl4>JP-21</ISO3166-2-lvl4>
          <postcode>494-0003</postcode>
          <country>日本</country>
          <country_code>jp</country_code>
        </extensions>
      </trkpt>
      <trkpt lat="35.332957" lon="136.732343">
        <name>正木町坂丸二丁目</name>
        <desc>正木保育園, 大垣江南線, 正木町森新田三丁目, 羽島市, 岐阜県, 501-6062, 日本</desc>
        <extensions>
          <amenity>正木保育園</amenity>
          <road>大垣江南線</road>
          <neighbourhood>正木町森新田三丁目</neighbourhood>
          <city>羽島市</city>
          <province>岐阜県</province>
          <ISO3166-2-lvl4>JP-21</ISO3166-2-lvl4>
          <postcode>501-6062</postcode>
          <country>日本</country>
          <country_code>jp</country_code>
        </extensions>
      </trkpt>
      <trkpt lat="35.331456" lon="136.73206">
        <name>正木町坂丸三丁目</name>
        <desc>正木町坂丸三丁目, 羽島市, 岐阜県, 501-6295, 日本</desc>
        <extensions>
          <neighbourhood>正木町坂丸三丁目</neighbourhood>
          <city>羽島市</city>
          <province>岐阜県</province>
          <ISO3166-2-lvl4>JP-21</ISO3166-2-lvl4>
          <postcode>501-6295</postcode>
          <country>日本</country>
          <country_code>jp</country_code>
        </extensions>
      </trkpt>
      <trkpt lat="35.3308" lon="136.734146">
        <name>正木町坂丸五丁目</name>
        <desc>正木町坂丸五丁目, 羽島市, 岐阜県, 501-6295, 日本</desc>
        <extensions>
          <neighbourhood>正木町坂丸五丁目</neighbourhood>
          <city>羽島市</city>
          <province>岐阜県</province>
          <ISO3166-2-lvl4>JP-21</ISO3166-2-lvl4>
          <postcode>501-6295</postcode>
          <country>日本</country>
          <country_code>jp</country_code>
        </extensions>
      </trkpt>
      <trkpt lat="35.331315" lon="136.735901">
        <name>正木町大浦新田八丁目</name>
        <desc>正木町大浦新田八丁目, 羽島市, 岐阜県, 494-0003, 日本</desc>
        <extensions>
          <neighbourhood>正木町大浦新田八丁目</neighbourhood>
          <city>羽島市</city>
          <province>岐阜県</province>
          <ISO3166-2-lvl4>JP-21</ISO3166-2-lvl4>
          <postcode>494-0003</postcode>
          <country>日本</country>
          <country_code>jp</country_code>
        </extensions>
      </trkpt>
      <trkpt lat="35.329676" lon="136.735665">
        <name>正木町大浦新田九丁目</name>
        <desc>正木町大浦新田九丁目, 羽島市, 岐阜県, 494-0003, 日本</desc>
        <extensions>
          <neighbourhood>正木町大浦新田九丁目</neighbourhood>
          <city>羽島市</city>
          <province>岐阜県</province>
          <ISO3166-2-lvl4>JP-21</ISO3166-2-lvl4>
          <postcode>494-0003</postcode>
          <country>日本</country>
          <country_code>jp</country_code>
        </extensions>
      </trkpt>
      <trkpt lat="35.329612" lon="136.731438">
        <name>正木町坂丸四丁目</name>
        <desc>正木町坂丸四丁目, 羽島市, 岐阜県, 501-6295, 日本</desc>
        <extensions>
          <neighbourhood>正木町坂丸四丁目</neighbourhood>
          <city>羽島市</city>
          <province>岐阜県</province>
          <ISO3166-2-lvl4>JP-21</ISO3166-2-lvl4>
          <postcode>501-6295</postcode>
          <country>日本</country>
          <country_code>jp</country_code>
        </extensions>
      </trkpt>
      <trkpt lat="35.329455" lon="136.732577">
        <name>正木町坂丸六丁目</name>
        <desc>正木町坂丸六丁目, 羽島市, 岐阜県, 501-6295, 日本</desc>
        <extensions>
          <neighbourhood>正木町坂丸六丁目</neighbourhood>
          <city>羽島市</city>
          <province>岐阜県</province>
          <ISO3166-2-lvl4>JP-21</ISO3166-2-lvl4>
          <postcode>501-6295</postcode>
          <country>日本</country>
          <country_code>jp</country_code>
        </extensions>
      </trkpt>
      <trkpt lat="35.3289" lon="136.737523">
        <name>正木町大浦新田十丁目</name>
        <desc>正木町大浦新田十丁目, 羽島市, 岐阜県, 494-0003, 日本</desc>
        <extensions>
          <neighbourhood>正木町大浦新田十丁目</neighbourhood>
          <city>羽島市</city>
          <province>岐阜県</province>
          <ISO3166-2-lvl4>JP-21</ISO3166-2-lvl4>
          <postcode>494-0003</postcode>
          <country>日本</country>
          <country_code>jp</country_code>
        </extensions>
      </trkpt>
      <trkpt lat="35.330033" lon="136.738157">
        <name>正木町大浦新田七丁目</name>
        <desc>正木町大浦新田十丁目, 羽島市, 岐阜県, 494-0003, 日本</desc>
        <extensions>
          <neighbourhood>正木町大浦新田十丁目</neighbourhood>
          <city>羽島市</city>
          <province>岐阜県</province>
          <ISO3166-2-lvl4>JP-21</ISO3166-2-lvl4>
          <postcode>494-0003</postcode>
          <country>日本</country>
          <country_code>jp</country_code>
        </extensions>
      </trkpt>
      <trkpt lat="35.331135" lon="136.739404">
        <name>正木町大浦新田六丁目</name>
        <desc>正木町大浦新田六丁目, 羽島市, 岐阜県, 494-0003, 日本</desc>
        <extensions>
          <neighbourhood>正木町大浦新田六丁目</neighbourhood>
          <city>羽島市</city>
          <province>岐阜県</province>
          <ISO3166-2-lvl4>JP-21</ISO3166-2-lvl4>
          <postcode>494-0003</postcode>
          <country>日本</country>
          <country_code>jp</country_code>
        </extensions>
      </trkpt>
      <trkpt lat="35.332469" lon="136.739782">
        <name>正木町大浦新田三丁目</name>
        <desc>正木町大浦新田三丁目, 羽島市, 岐阜県, 494-0003, 日本</desc>
        <extensions>
          <neighbourhood>正木町大浦新田三丁目</neighbourhood>
          <city>羽島市</city>
          <province>岐阜県</province>
          <ISO3166-2-lvl4>JP-21</ISO3166-2-lvl4>
          <postcode>494-0003</postcode>
          <country>日本</country>
          <country_code>jp</country_code>
        </extensions>
      </trkpt>
      <trkpt lat="35.333913" lon="136.738691">
        <name>正木町大浦新田一丁目</name>
        <desc>正木町大浦新田一丁目, 羽島市, 岐阜県, 501-6062, 日本</desc>
        <extensions>
          <neighbourhood>正木町大浦新田一丁目</neighbourhood>
          <city>羽島市</city>
          <province>岐阜県</province>
          <ISO3166-2-lvl4>JP-21</ISO3166-2-lvl4>
          <postcode>501-6062</postcode>
          <country>日本</country>
          <country_code>jp</country_code>
        </extensions>
      </trkpt>
      <trkpt lat="35.333383" lon="136.737929">
        <name>正木町大浦新田二丁目</name>
        <desc>正木町大浦新田二丁目, 羽島市, 岐阜県, 494-0003, 日本</desc>
        <extensions>
          <neighbourhood>正木町大浦新田二丁目</neighbourhood>
          <city>羽島市</city>
          <province>岐阜県</province>
          <ISO3166-2-lvl4>JP-21</ISO3166-2-lvl4>
          <postcode>494-0003</postcode>
          <country>日本</country>
          <country_code>jp</country_code>
        </extensions>
      </trkpt>
      <trkpt lat="35.334377" lon="136.740132">
        <name>正木町森新田三丁目</name>
        <desc>大垣江南線, 正木町森新田三丁目, 羽島市, 岐阜県, 501-6062, 日本</desc>
        <extensions>
          <road>大垣江南線</road>
          <neighbourhood>正木町森新田三丁目</neighbourhood>
          <city>羽島市</city>
          <province>岐阜県</province>
          <ISO3166-2-lvl4>JP-21</ISO3166-2-lvl4>
          <postcode>501-6062</postcode>
          <country>日本</country>
          <country_code>jp</country_code>
        </extensions>
      </trkpt>
      <trkpt lat="35.334006" lon="136.740728">
        <name>正木町上大浦七丁目</name>
        <desc>正木町上大浦七丁目, 羽島市, 岐阜県, 494-0003, 日本</desc>
        <extensions>
          <neighbourhood>正木町上大浦七丁目</neighbourhood>
          <city>羽島市</city>
          <province>岐阜県</province>
          <ISO3166-2-lvl4>JP-21</ISO3166-2-lvl4>
          <postcode>494-0003</postcode>
          <country>日本</country>
          <country_code>jp</country_code>
        </extensions>
      </trkpt>
      <trkpt lat="35.33358" lon="136.741218">
        <name>正木町森新田四丁目</name>
        <desc>正木町森新田四丁目, 羽島市, 岐阜県, 494-0003, 日本</desc>
        <extensions>
          <neighbourhood>正木町森新田四丁目</neighbourhood>
          <city>羽島市</city>
          <province>岐阜県</province>
          <ISO3166-2-lvl4>JP-21</ISO3166-2-lvl4>
          <postcode>494-0003</postcode>
          <country>日本</country>
          <country_code>jp</country_code>
        </extensions>
      </trkpt>
      <trkpt lat="35.333773" lon="136.744268">
        <name>正木町光法寺二丁目</name>
        <desc>大垣江南線, 正木町光法寺二丁目, 羽島市, 岐阜県, 494-0003, 日本</desc>
        <extensions>
          <road>大垣江南線</road>
          <neighbourhood>正木町光法寺二丁目</neighbourhood>
          <city>羽島市</city>
          <province>岐阜県</province>
          <ISO3166-2-lvl4>JP-21</ISO3166-2-lvl4>
          <postcode>494-0003</postcode>
          <country>日本</country>
          <country_code>jp</country_code>
        </extensions>
      </trkpt>
      <trkpt lat="35.332216" lon="136.741068">
        <name>正木町森新田五丁目</name>
        <desc>正木町森新田五丁目, 羽島市, 岐阜県, 494-0003, 日本</desc>
        <extensions>
          <neighbourhood>正木町森新田五丁目</neighbourhood>
          <city>羽島市</city>
          <province>岐阜県</province>
          <ISO3166-2-lvl4>JP-21</ISO3166-2-lvl4>
          <postcode>494-0003</postcode>
          <country>日本</country>
          <country_code>jp</country_code>
        </extensions>
      </trkpt>
      <trkpt lat="35.335357" lon="136.739514">
        <name>正木町森新田二丁目</name>
        <desc>正木町森新田二丁目, 羽島市, 岐阜県, 501-6062, 日本</desc>
        <extensions>
          <neighbourhood>正木町森新田二丁目</neighbourhood>
          <city>羽島市</city>
          <province>岐阜県</province>
          <ISO3166-2-lvl4>JP-21</ISO3166-2-lvl4>
          <postcode>501-6062</postcode>
          <country>日本</country>
          <country_code>jp</country_code>
        </extensions>
      </trkpt>
      <trkpt lat="35.336216" lon="136.740037">
        <name>正木町森新田一丁目</name>
        <desc>正木町森新田一丁目, 羽島市, 岐阜県, 501-6062, 日本</desc>
        <extensions>
          <neighbourhood>正木町森新田一丁目</neighbourhood>
          <city>羽島市</city>
          <province>岐阜県</province>
          <ISO3166-2-lvl4>JP-21</ISO3166-2-lvl4>
          <postcode>501-6062</postcode>
          <country>日本</country>
          <country_code>jp</country_code>
        </extensions>
      </trkpt>
      <trkpt lat="35.335772" lon="136.742176">
        <name>正木町上大浦六丁目</name>
        <desc>正木町上大浦六丁目, 羽島市, 岐阜県, 501-6062, 日本</desc>
        <extensions>
          <neighbourhood>正木町上大浦六丁目</neighbourhood>
          <city>羽島市</city>
          <province>岐阜県</province>
          <ISO3166-2-lvl4>JP-21</ISO3166-2-lvl4>
          <postcode>501-6062</postcode>
          <country>日本</country>
          <country_code>jp</country_code>
        </extensions>
      </trkpt>
    </trkseg>
    <extensions>
      <stats>
        <totalDistanceKm>15.30</totalDistanceKm>
        <pointCount>41</pointCount>
      </stats>
    </extensions>
    <name>Segment 4</name>
  </trk>
</gpx>