<?xml version="1.0" encoding="UTF-8"?>
<gpx version="1.1" creator="PowerShell ConvertTo-Gpx" xmlns="http://www.topografix.com/GPX/1/1">
  <metadata>
    <time>2025-11-02T18:29:47Z</time>
  </metadata>
  <trk>
    <name>
    </name>
    <trkseg>
      <trkpt lat="35.375145" lon="136.832086" muitiRoute="1">
        <name>下中屋町</name>
      </trkpt>
      <trkpt lat="35.377735" lon="136.827175" muitiRoute="1">
        <name>神置町</name>
      </trkpt>
      <trkpt lat="35.371498" lon="136.821441" muitiRoute="1">
        <name>川島笠田町</name>
      </trkpt>
      <trkpt lat="35.372387" lon="136.82022" muitiRoute="1">
        <name>川島笠田町一丁目</name>
      </trkpt>
      <trkpt lat="35.372394" lon="136.81717" muitiRoute="1">
        <name>川島笠田町二丁目</name>
      </trkpt>
      <trkpt lat="35.370358" lon="136.816593" muitiRoute="1">
        <name>川島笠田町四丁目</name>
      </trkpt>
      <trkpt lat="35.370116" lon="136.814724" muitiRoute="1">
        <name>川島笠田町五丁目</name>
      </trkpt>
      <trkpt lat="35.371818" lon="136.813989" muitiRoute="1">
        <name>川島笠田町三丁目</name>
      </trkpt>
      <trkpt lat="35.375643" lon="136.8182329" muitiRoute="1">
        <name>平島三丁目</name>
      </trkpt>
      <trkpt lat="35.369855" lon="136.812295" muitiRoute="1">
        <name>川島笠田町六丁目</name>
      </trkpt>
      <trkpt lat="35.364186" lon="136.815998" muitiRoute="1">
        <name>川島緑町二丁目</name>
      </trkpt>
      <trkpt lat="35.362624" lon="136.816812" muitiRoute="1">
        <name>川島緑町五丁目</name>
      </trkpt>
      <trkpt lat="35.363225" lon="136.81889" muitiRoute="1">
        <name>川島緑町四丁目</name>
      </trkpt>
      <trkpt lat="35.364759" lon="136.820361" muitiRoute="1">
        <name>川島緑町一丁目</name>
      </trkpt>
      <trkpt lat="35.363656" lon="136.822395" muitiRoute="1">
        <name>川島緑町三丁目</name>
      </trkpt>
      <trkpt lat="35.362719" lon="136.824952" muitiRoute="1">
        <name>川島松原町</name>
      </trkpt>
      <trkpt lat="35.363248" lon="136.831441" muitiRoute="1">
        <name>川島河田町</name>
      </trkpt>
      <trkpt lat="35.362456" lon="136.834997" muitiRoute="1">
        <name>川島河田町一丁目</name>
      </trkpt>
      <trkpt lat="35.362267" lon="136.835912" muitiRoute="1">
        <name>川島河田町三丁目</name>
      </trkpt>
      <trkpt lat="35.363294" lon="136.835768" muitiRoute="1">
        <name>川島河田町二丁目</name>
      </trkpt>
      <trkpt lat="35.368039" lon="136.834299" muitiRoute="1">
        <name>川島松倉町</name>
      </trkpt>
      <trkpt lat="35.363382" lon="136.840343" muitiRoute="1">
        <name>川島竹早町</name>
      </trkpt>
      <trkpt lat="35.367087" lon="136.85159" muitiRoute="1">
        <name>川島小網町</name>
      </trkpt>
      <trkpt lat="35.375183" lon="136.849664" muitiRoute="1">
        <name>上中屋町</name>
      </trkpt>
      <trkpt lat="35.378512" lon="136.849611" muitiRoute="1">
        <name>上中屋町二丁目</name>
      </trkpt>
      <trkpt lat="35.378974" lon="136.845546" muitiRoute="1">
        <name>上中屋町一丁目</name>
      </trkpt>
      <trkpt lat="35.376416" lon="136.841871" muitiRoute="1">
        <name>大佐野町</name>
      </trkpt>
      <trkpt lat="35.380614" lon="136.84174" muitiRoute="1">
        <name>大佐野町三丁目</name>
      </trkpt>
      <trkpt lat="35.384216" lon="136.841238" muitiRoute="1">
        <name>大佐野町二丁目</name>
      </trkpt>
      <trkpt lat="35.386769" lon="136.841483" muitiRoute="1">
        <name>三井町六丁目</name>
      </trkpt>
      <trkpt lat="35.389129" lon="136.840253" muitiRoute="1">
        <name>三井町五丁目</name>
      </trkpt>
      <trkpt lat="35.389411" lon="136.844947" muitiRoute="1">
        <name>三井東町四丁目</name>
      </trkpt>
      <trkpt lat="35.388091" lon="136.845559" muitiRoute="1">
        <name>三井山町一丁目</name>
      </trkpt>
      <trkpt lat="35.386639" lon="136.845817" muitiRoute="1">
        <name>三井山町二丁目</name>
      </trkpt>
      <trkpt lat="35.383891" lon="136.845392" muitiRoute="1">
        <name>上戸町二丁目</name>
      </trkpt>
      <trkpt lat="35.384711" lon="136.847835" muitiRoute="1">
        <name>上戸町一丁目</name>
      </trkpt>
      <trkpt lat="35.382741" lon="136.84843" muitiRoute="1">
        <name>上戸町四丁目</name>
      </trkpt>
      <trkpt lat="35.381123" lon="136.845647" muitiRoute="1">
        <name>上戸町三丁目</name>
      </trkpt>
      <trkpt lat="35.380064" lon="136.838033" muitiRoute="1">
        <name>下中屋町三丁目</name>
      </trkpt>
      <trkpt lat="35.383104" lon="136.837448" muitiRoute="1">
        <name>大佐野町一丁目</name>
      </trkpt>
      <trkpt lat="35.382697" lon="136.834294" muitiRoute="1">
        <name>下中屋町一丁目</name>
      </trkpt>
      <trkpt lat="35.380129" lon="136.833271" muitiRoute="1">
        <name>下中屋町二丁目</name>
      </trkpt>
      <trkpt lat="35.384372" lon="136.830906" muitiRoute="1">
        <name>成清町四丁目</name>
      </trkpt>
      <trkpt lat="35.386641" lon="136.830777" muitiRoute="1">
        <name>小佐野町七丁目</name>
      </trkpt>
      <trkpt lat="35.389018" lon="136.83226" muitiRoute="1">
        <name>小佐野町三丁目</name>
      </trkpt>
      <trkpt lat="35.388076" lon="136.834465" muitiRoute="1">
        <name>小佐野町四丁目</name>
      </trkpt>
      <trkpt lat="35.385469" lon="136.834184" muitiRoute="1">
        <name>小佐野町六丁目</name>
      </trkpt>
      <trkpt lat="35.386893" lon="136.837357" muitiRoute="1">
        <name>小佐野町五丁目</name>
      </trkpt>
      <trkpt lat="35.38516" lon="136.829441" muitiRoute="1">
        <name>成清町三丁目</name>
      </trkpt>
      <trkpt lat="35.382553" lon="136.829652" muitiRoute="1">
        <name>成清町七丁目</name>
      </trkpt>
      <trkpt lat="35.380459" lon="136.829144" muitiRoute="1">
        <name>神置町四丁目</name>
      </trkpt>
      <trkpt lat="35.380667" lon="136.825688" muitiRoute="1">
        <name>神置町三丁目</name>
      </trkpt>
      <trkpt lat="35.382933" lon="136.826243" muitiRoute="1">
        <name>成清町六丁目</name>
      </trkpt>
      <trkpt lat="35.38534" lon="136.826547" muitiRoute="1">
        <name>成清町二丁目</name>
      </trkpt>
      <trkpt lat="35.387683" lon="136.826883" muitiRoute="1">
        <name>大野町五丁目</name>
      </trkpt>
      <trkpt lat="35.389108" lon="136.828701" muitiRoute="1">
        <name>小佐野町二丁目</name>
      </trkpt>
      <trkpt lat="35.388187" lon="136.824556" muitiRoute="1">
        <name>大野町四丁目</name>
      </trkpt>
      <trkpt lat="35.389956" lon="136.824517" muitiRoute="1">
        <name>那加萱場町五丁目</name>
      </trkpt>
      <trkpt lat="35.388881" lon="136.821715" muitiRoute="1">
        <name>大野町三丁目</name>
      </trkpt>
      <trkpt lat="35.385926" lon="136.820841" muitiRoute="1">
        <name>大野町七丁目</name>
      </trkpt>
      <trkpt lat="35.385234" lon="136.823676" muitiRoute="1">
        <name>成清町一丁目</name>
      </trkpt>
      <trkpt lat="35.383375" lon="136.823131" muitiRoute="1">
        <name>成清町五丁目</name>
      </trkpt>
      <trkpt lat="35.380704" lon="136.822362" muitiRoute="1">
        <name>神置町二丁目</name>
      </trkpt>
      <trkpt lat="35.380936" lon="136.819997" muitiRoute="1">
        <name>神置町一丁目</name>
      </trkpt>
      <trkpt lat="35.386303" lon="136.818168" muitiRoute="1">
        <name>大野町六丁目</name>
      </trkpt>
      <trkpt lat="35.38948" lon="136.818906" muitiRoute="1">
        <name>大野町二丁目</name>
      </trkpt>
      <trkpt lat="35.389773" lon="136.816904" muitiRoute="1">
        <name>大野町一丁目</name>
      </trkpt>
      <trkpt lat="35.391503" lon="136.818534" muitiRoute="1">
        <name>那加緑町二丁目</name>
      </trkpt>
      <trkpt lat="35.392205" lon="136.817784" muitiRoute="1">
        <name>那加緑町一丁目</name>
      </trkpt>
      <trkpt lat="35.393494" lon="136.81784" muitiRoute="1">
        <name>那加日新町五丁目</name>
      </trkpt>
      <trkpt lat="35.394508" lon="136.817402" muitiRoute="1">
        <name>那加日新町二丁目</name>
      </trkpt>
      <trkpt lat="35.395448" lon="136.816102" muitiRoute="1">
        <name>那加西浦町一丁目</name>
      </trkpt>
      <trkpt lat="35.394211" lon="136.81508" muitiRoute="1">
        <name>那加日新町一丁目</name>
      </trkpt>
      <trkpt lat="35.393086" lon="136.815464" muitiRoute="1">
        <name>那加日新町四丁目</name>
      </trkpt>
      <trkpt lat="35.396599" lon="136.817663" muitiRoute="1">
        <name>那加西浦町二丁目</name>
      </trkpt>
      <trkpt lat="35.396649" lon="136.818992" muitiRoute="1">
        <name>那加西浦町三丁目</name>
      </trkpt>
      <trkpt lat="35.399029" lon="136.819921" muitiRoute="1">
        <name>那加大門町二丁目</name>
      </trkpt>
      <trkpt lat="35.399029" lon="136.816176" muitiRoute="1">
        <name>那加大門町一丁目</name>
      </trkpt>
      <trkpt lat="35.394034" lon="136.820252" muitiRoute="1">
        <name>那加日新町六丁目</name>
      </trkpt>
      <trkpt lat="35.392858" lon="136.82098" muitiRoute="1">
        <name>那加緑町三丁目</name>
      </trkpt>
      <trkpt lat="35.391644" lon="136.821382" muitiRoute="1">
        <name>那加緑町四丁目</name>
      </trkpt>
      <trkpt lat="35.390721" lon="136.822437" muitiRoute="1">
        <name>那加緑町五丁目</name>
      </trkpt>
      <trkpt lat="35.391668" lon="136.824396" muitiRoute="1">
        <name>那加萱場町三丁目</name>
      </trkpt>
      <trkpt lat="35.392573" lon="136.824105" muitiRoute="1">
        <name>那加萱場町二丁目</name>
      </trkpt>
      <trkpt lat="35.393445" lon="136.823823" muitiRoute="1">
        <name>那加萱場町一丁目</name>
      </trkpt>
      <trkpt lat="35.394612" lon="136.823078" muitiRoute="1">
        <name>那加日新町七丁目</name>
      </trkpt>
      <trkpt lat="35.395463" lon="136.822277" muitiRoute="1">
        <name>那加日新町三丁目</name>
      </trkpt>
      <trkpt lat="35.394994" lon="136.826465" muitiRoute="1">
        <name>那加日新町八丁目</name>
      </trkpt>
      <trkpt lat="35.397306" lon="136.82622" muitiRoute="1">
        <name>那加新加納町</name>
      </trkpt>
      <trkpt lat="35.398653" lon="136.828516" muitiRoute="1">
        <name>那加日吉町一丁目</name>
      </trkpt>
      <trkpt lat="35.39873" lon="136.829932" muitiRoute="1">
        <name>那加日吉町二丁目</name>
      </trkpt>
      <trkpt lat="35.393484" lon="136.829143" muitiRoute="1">
        <name>金属団地</name>
      </trkpt>
      <trkpt lat="35.390511" lon="136.829333" muitiRoute="1">
        <name>小佐野町一丁目</name>
      </trkpt>
      <trkpt lat="35.390702" lon="136.824702" muitiRoute="1">
        <name>那加萱場町四丁目</name>
      </trkpt>
      <trkpt lat="35.401394" lon="136.824654" muitiRoute="1">
        <name>那加浜見町一丁目</name>
      </trkpt>
      <trkpt lat="35.401825" lon="136.822896" muitiRoute="1">
        <name>那加大谷町</name>
      </trkpt>
      <trkpt lat="35.403741" lon="136.820995" muitiRoute="1">
        <name>那加神田町</name>
      </trkpt>
      <trkpt lat="35.406496" lon="136.822523" muitiRoute="1">
        <name>那加長塚町二丁目</name>
      </trkpt>
      <trkpt lat="35.406761" lon="136.824866" muitiRoute="1">
        <name>那加長塚町三丁目</name>
      </trkpt>
      <trkpt lat="35.408764" lon="136.824905" muitiRoute="1">
        <name>那加手力町</name>
      </trkpt>
      <trkpt lat="35.40994" lon="136.82457" muitiRoute="1">
        <name>那加山後町三丁目</name>
      </trkpt>
      <trkpt lat="35.407782" lon="136.827246" muitiRoute="1">
        <name>那加石山町一丁目</name>
      </trkpt>
      <trkpt lat="35.406308" lon="136.827703" muitiRoute="1">
        <name>那加石山町二丁目</name>
      </trkpt>
      <trkpt lat="35.403648" lon="136.828817" muitiRoute="1">
        <name>那加新田町二丁目</name>
      </trkpt>
      <trkpt lat="35.401743" lon="136.827083" muitiRoute="1">
        <name>那加浜見町二丁目</name>
      </trkpt>
      <trkpt lat="35.401047" lon="136.829153" muitiRoute="1">
        <name>那加宮浦町</name>
      </trkpt>
      <trkpt lat="35.404345" lon="136.824929" muitiRoute="1">
        <name>那加新田町一丁目</name>
      </trkpt>
      <trkpt lat="35.407056" lon="136.820215" muitiRoute="1">
        <name>那加長塚町一丁目</name>
      </trkpt>
      <trkpt lat="35.408725" lon="136.817321" muitiRoute="1">
        <name>那加岩地町二丁目</name>
      </trkpt>
      <trkpt lat="35.40547" lon="136.816567" muitiRoute="1">
        <name>那加岩地町三丁目</name>
      </trkpt>
      <trkpt lat="35.404118" lon="136.817803" muitiRoute="1">
        <name>那加兼橋町</name>
      </trkpt>
      <trkpt lat="35.401347" lon="136.816487" muitiRoute="1">
        <name>那加五反田町</name>
      </trkpt>
      <trkpt lat="35.400995" lon="136.819985" muitiRoute="1">
        <name>那加荒田町</name>
      </trkpt>
      <trkpt lat="35.410129" lon="136.819861" muitiRoute="1">
        <name>那加山後町一丁目</name>
      </trkpt>
      <trkpt lat="35.411671" lon="136.816826" muitiRoute="1">
        <name>那加岩地町一丁目</name>
      </trkpt>
      <trkpt lat="35.413266" lon="136.818115" muitiRoute="1">
        <name>那加土山町二丁目</name>
      </trkpt>
      <trkpt lat="35.416011" lon="136.817671" muitiRoute="1">
        <name>那加土山町一丁目</name>
      </trkpt>
      <trkpt lat="35.41583" lon="136.816398" muitiRoute="1">
        <name>那加芦原町二丁目</name>
      </trkpt>
      <trkpt lat="35.417952" lon="136.81747" muitiRoute="1">
        <name>那加芦原町一丁目</name>
      </trkpt>
      <trkpt lat="35.418142" lon="136.819055" muitiRoute="1">
        <name>那加桐野町七丁目</name>
      </trkpt>
      <trkpt lat="35.41635" lon="136.818975" muitiRoute="1">
        <name>那加琴が丘町一丁目</name>
      </trkpt>
      <trkpt lat="35.41644" lon="136.820744" muitiRoute="1">
        <name>那加琴が丘町二丁目</name>
      </trkpt>
      <trkpt lat="35.416551" lon="136.822342" muitiRoute="1">
        <name>那加琴が丘町三丁目</name>
      </trkpt>
      <trkpt lat="35.414335" lon="136.821319" muitiRoute="1">
        <name>那加西市場町一丁目</name>
      </trkpt>
      <trkpt lat="35.411813" lon="136.821813" muitiRoute="1">
        <name>那加山後町二丁目</name>
      </trkpt>
      <trkpt lat="35.413281" lon="136.824207" muitiRoute="1">
        <name>那加西市場町二丁目</name>
      </trkpt>
      <trkpt lat="35.41352" lon="136.826067" muitiRoute="1">
        <name>那加西市場町三丁目</name>
      </trkpt>
      <trkpt lat="35.413618" lon="136.828732" muitiRoute="1">
        <name>那加西市場町五丁目</name>
      </trkpt>
      <trkpt lat="35.410149" lon="136.828441" muitiRoute="1">
        <name>那加西市場町六丁目</name>
      </trkpt>
      <trkpt lat="35.418341" lon="136.826341" muitiRoute="1">
        <name>那加西市場町四丁目</name>
      </trkpt>
      <trkpt lat="35.419911" lon="136.823626" muitiRoute="1">
        <name>那加柄山町</name>
      </trkpt>
      <trkpt lat="35.418871" lon="136.821265" muitiRoute="1">
        <name>那加桐野町九丁目</name>
      </trkpt>
      <trkpt lat="35.421529" lon="136.821349" muitiRoute="1">
        <name>那加桐野町八丁目</name>
      </trkpt>
      <trkpt lat="35.423088" lon="136.823429" muitiRoute="1">
        <name>尾崎西町二丁目</name>
      </trkpt>
      <trkpt lat="35.423742" lon="136.826487" muitiRoute="1">
        <name>尾崎西町三丁目</name>
      </trkpt>
      <trkpt lat="35.425327" lon="136.82623" muitiRoute="1">
        <name>尾崎西町一丁目</name>
      </trkpt>
      <trkpt lat="35.424033" lon="136.82813" muitiRoute="1">
        <name>尾崎西町五丁目</name>
      </trkpt>
      <trkpt lat="35.422102" lon="136.828286" muitiRoute="1">
        <name>尾崎南町一丁目</name>
      </trkpt>
      <trkpt lat="35.421488" lon="136.826499" muitiRoute="1">
        <name>尾崎西町四丁目</name>
      </trkpt>
      <trkpt lat="35.424961" lon="136.820217" muitiRoute="1">
        <name>那加桐野町五丁目</name>
      </trkpt>
      <trkpt lat="35.425927" lon="136.816867" muitiRoute="1">
        <name>那加桐野町一丁目</name>
      </trkpt>
      <trkpt lat="35.42356" lon="136.816099" muitiRoute="1">
        <name>那加桐野町二丁目</name>
      </trkpt>
      <trkpt lat="35.421613" lon="136.815994" muitiRoute="1">
        <name>那加桐野町三丁目</name>
      </trkpt>
      <trkpt lat="35.420051" lon="136.817288" muitiRoute="1">
        <name>那加桐野町四丁目</name>
      </trkpt>
      <trkpt lat="35.4215" lon="136.818635" muitiRoute="1">
        <name>那加桐野町六丁目</name>
      </trkpt>
      <trkpt lat="35.423796" lon="136.83037" muitiRoute="1">
        <name>尾崎南町三丁目</name>
      </trkpt>
      <trkpt lat="35.421965" lon="136.831445" muitiRoute="1">
        <name>尾崎南町二丁目</name>
      </trkpt>
      <trkpt lat="35.423797" lon="136.83298" muitiRoute="1">
        <name>尾崎南町四丁目</name>
      </trkpt>
      <trkpt lat="35.423508" lon="136.834503" muitiRoute="1">
        <name>尾崎南町五丁目</name>
      </trkpt>
      <trkpt lat="35.424763" lon="136.8352" muitiRoute="1">
        <name>尾崎北町六丁目</name>
      </trkpt>
      <trkpt lat="35.426226" lon="136.834745" muitiRoute="1">
        <name>尾崎北町三丁目</name>
      </trkpt>
      <trkpt lat="35.426214" lon="136.832723" muitiRoute="1">
        <name>尾崎北町二丁目</name>
      </trkpt>
      <trkpt lat="35.427862" lon="136.832271" muitiRoute="1">
        <name>那加大洞</name>
      </trkpt>
      <trkpt lat="35.426218" lon="136.830627" muitiRoute="1">
        <name>尾崎北町一丁目</name>
      </trkpt>
      <trkpt lat="35.421401" lon="136.834792" muitiRoute="1">
        <name>那加扇平</name>
      </trkpt>
      <trkpt lat="35.423155" lon="136.836785" muitiRoute="1">
        <name>尾崎南町六丁目</name>
      </trkpt>
      <trkpt lat="35.424917" lon="136.838066" muitiRoute="1">
        <name>尾崎北町七丁目</name>
      </trkpt>
      <trkpt lat="35.425847" lon="136.837613" muitiRoute="1">
        <name>尾崎北町五丁目</name>
      </trkpt>
      <trkpt lat="35.426511" lon="136.83773" muitiRoute="1">
        <name>尾崎北町四丁目</name>
      </trkpt>
      <trkpt lat="35.427706" lon="136.842325" muitiRoute="1">
        <name>那加北洞町一丁目</name>
      </trkpt>
      <trkpt lat="35.424228" lon="136.846645" muitiRoute="1">
        <name>蘇原宮代町一丁目</name>
      </trkpt>
      <trkpt lat="35.422585" lon="136.846596" muitiRoute="1">
        <name>蘇原宮代町二丁目</name>
      </trkpt>
      <trkpt lat="35.420861" lon="136.841613" muitiRoute="1">
        <name>那加北洞町二丁目</name>
      </trkpt>
      <trkpt lat="35.418327" lon="136.840335" muitiRoute="1">
        <name>那加山崎町</name>
      </trkpt>
      <trkpt lat="35.414401" lon="136.842288" muitiRoute="1">
        <name>那加東野町二丁目</name>
      </trkpt>
      <trkpt lat="35.413583" lon="136.844536" muitiRoute="1">
        <name>蘇原瑞穂町一丁目</name>
      </trkpt>
      <trkpt lat="35.41375" lon="136.846238" muitiRoute="1">
        <name>蘇原瑞穂町二丁目</name>
      </trkpt>
      <trkpt lat="35.413925" lon="136.848151" muitiRoute="1">
        <name>蘇原瑞穂町三丁目</name>
      </trkpt>
      <trkpt lat="35.416362" lon="136.848378" muitiRoute="1">
        <name>蘇原大島町二丁目</name>
      </trkpt>
      <trkpt lat="35.419097" lon="136.848228" muitiRoute="1">
        <name>蘇原大島町五丁目</name>
      </trkpt>
      <trkpt lat="35.418321" lon="136.845909" muitiRoute="1">
        <name>蘇原大島町四丁目</name>
      </trkpt>
      <trkpt lat="35.419246" lon="136.845293" muitiRoute="1">
        <name>蘇原宮代町三丁目</name>
      </trkpt>
      <trkpt lat="35.416229" lon="136.845332" muitiRoute="1">
        <name>蘇原大島町一丁目</name>
      </trkpt>
      <trkpt lat="35.411262" lon="136.845667" muitiRoute="1">
        <name>蘇原花園町一丁目</name>
      </trkpt>
      <trkpt lat="35.410342" lon="136.848635" muitiRoute="1">
        <name>蘇原花園町二丁目</name>
      </trkpt>
      <trkpt lat="35.410583" lon="136.84114" muitiRoute="1">
        <name>那加前洞新町五丁目</name>
      </trkpt>
      <trkpt lat="35.410456" lon="136.850607" muitiRoute="1">
        <name>蘇原花園町三丁目</name>
      </trkpt>
      <trkpt lat="35.410157" lon="136.852659" muitiRoute="1">
        <name>蘇原花園町四丁目</name>
      </trkpt>
      <trkpt lat="35.410946" lon="136.854187" muitiRoute="1">
        <name>蘇原申子町一丁目</name>
      </trkpt>
      <trkpt lat="35.410955" lon="136.856875" muitiRoute="1">
        <name>蘇原申子町二丁目</name>
      </trkpt>
      <trkpt lat="35.41188" lon="136.859261" muitiRoute="1">
        <name>蘇原青雲町一丁目</name>
      </trkpt>
      <trkpt lat="35.415421" lon="136.858333" muitiRoute="1">
        <name>蘇原吉野町三丁目</name>
      </trkpt>
      <trkpt lat="35.415272" lon="136.855903" muitiRoute="1">
        <name>蘇原吉野町二丁目</name>
      </trkpt>
      <trkpt lat="35.415093" lon="136.853957" muitiRoute="1">
        <name>蘇原吉野町一丁目</name>
      </trkpt>
      <trkpt lat="35.414259" lon="136.852095" muitiRoute="1">
        <name>蘇原瑞穂町五丁目</name>
      </trkpt>
      <trkpt lat="35.414076" lon="136.850122" muitiRoute="1">
        <name>蘇原瑞穂町四丁目</name>
      </trkpt>
      <trkpt lat="35.416541" lon="136.851296" muitiRoute="1">
        <name>蘇原大島町三丁目</name>
      </trkpt>
      <trkpt lat="35.417861" lon="136.854091" muitiRoute="1">
        <name>蘇原吉野町五丁目</name>
      </trkpt>
      <trkpt lat="35.419814" lon="136.854544" muitiRoute="1">
        <name>蘇原赤羽根町三丁目</name>
      </trkpt>
      <trkpt lat="35.4197" lon="136.856461" muitiRoute="1">
        <name>蘇原赤羽根町四丁目</name>
      </trkpt>
      <trkpt lat="35.417892" lon="136.857249" muitiRoute="1">
        <name>蘇原吉野町四丁目</name>
      </trkpt>
      <trkpt lat="35.419412" lon="136.858875" muitiRoute="1">
        <name>蘇原赤羽根町五丁目</name>
      </trkpt>
      <trkpt lat="35.419594" lon="136.850514" muitiRoute="1">
        <name>蘇原大島町六丁目</name>
      </trkpt>
      <trkpt lat="35.420129" lon="136.85266" muitiRoute="1">
        <name>蘇原大島町七丁目</name>
      </trkpt>
      <trkpt lat="35.422479" lon="136.854814" muitiRoute="1">
        <name>蘇原赤羽根町一丁目</name>
      </trkpt>
      <trkpt lat="35.423533" lon="136.853422" muitiRoute="1">
        <name>蘇原宮塚町二丁目</name>
      </trkpt>
      <trkpt lat="35.422661" lon="136.850247" muitiRoute="1">
        <name>蘇原宮塚町一丁目</name>
      </trkpt>
      <trkpt lat="35.422626" lon="136.856736" muitiRoute="1">
        <name>蘇原赤羽根町二丁目</name>
      </trkpt>
      <trkpt lat="35.424529" lon="136.857203" muitiRoute="1">
        <name>蘇原宮塚町三丁目</name>
      </trkpt>
      <trkpt lat="35.425469" lon="136.859839" muitiRoute="1">
        <name>蘇原北陽町一丁目</name>
      </trkpt>
      <trkpt lat="35.422553" lon="136.859262" muitiRoute="1">
        <name>蘇原伊吹町一丁目</name>
      </trkpt>
      <trkpt lat="35.42222" lon="136.86141" muitiRoute="1">
        <name>蘇原伊吹町二丁目</name>
      </trkpt>
      <trkpt lat="35.421971" lon="136.863546" muitiRoute="1">
        <name>蘇原伊吹町三丁目</name>
      </trkpt>
      <trkpt lat="35.422129" lon="136.866507" muitiRoute="1">
        <name>蘇原古市場町五丁目</name>
      </trkpt>
      <trkpt lat="35.422212" lon="136.869527" muitiRoute="1">
        <name>蘇原外山町一丁目</name>
      </trkpt>
      <trkpt lat="35.425466" lon="136.868873" muitiRoute="1">
        <name>蘇原飛鳥町一丁目</name>
      </trkpt>
      <trkpt lat="35.42526" lon="136.866973" muitiRoute="1">
        <name>蘇原北陽町五丁目</name>
      </trkpt>
      <trkpt lat="35.425756" lon="136.865469" muitiRoute="1">
        <name>蘇原北陽町四丁目</name>
      </trkpt>
      <trkpt lat="35.42567" lon="136.863647" muitiRoute="1">
        <name>蘇原北陽町三丁目</name>
      </trkpt>
      <trkpt lat="35.425448" lon="136.861756" muitiRoute="1">
        <name>蘇原北陽町二丁目</name>
      </trkpt>
      <trkpt lat="35.430652" lon="136.863166" muitiRoute="1">
        <name>蘇原北山町一丁目</name>
      </trkpt>
      <trkpt lat="35.431463" lon="136.870111" muitiRoute="1">
        <name>蘇原北山町二丁目</name>
      </trkpt>
      <trkpt lat="35.431711" lon="136.876237" muitiRoute="1">
        <name>蘇原持田町一丁目</name>
      </trkpt>
      <trkpt lat="35.431638" lon="136.879361" muitiRoute="1">
        <name>蘇原持田町二丁目</name>
      </trkpt>
      <trkpt lat="35.43479" lon="136.877" muitiRoute="1">
        <name>蘇原北山町四丁目</name>
      </trkpt>
      <trkpt lat="35.428683" lon="136.874924" muitiRoute="1">
        <name>蘇原北山町三丁目</name>
      </trkpt>
      <trkpt lat="35.426547" lon="136.87679" muitiRoute="1">
        <name>蘇原清住町二丁目</name>
      </trkpt>
      <trkpt lat="35.425522" lon="136.877616" muitiRoute="1">
        <name>蘇原清住町五丁目</name>
      </trkpt>
      <trkpt lat="35.424682" lon="136.876619" muitiRoute="1">
        <name>蘇原清住町六丁目</name>
      </trkpt>
      <trkpt lat="35.425777" lon="136.874968" muitiRoute="1">
        <name>蘇原清住町一丁目</name>
      </trkpt>
      <trkpt lat="35.425586" lon="136.871803" muitiRoute="1">
        <name>蘇原飛鳥町三丁目</name>
      </trkpt>
      <trkpt lat="35.427134" lon="136.870344" muitiRoute="1">
        <name>蘇原飛鳥町二丁目</name>
      </trkpt>
      <trkpt lat="35.422073" lon="136.872366" muitiRoute="1">
        <name>蘇原外山町二丁目</name>
      </trkpt>
      <trkpt lat="35.421618" lon="136.874749" muitiRoute="1">
        <name>蘇原外山町三丁目</name>
      </trkpt>
      <trkpt lat="35.421657" lon="136.876997" muitiRoute="1">
        <name>蘇原東門町一丁目</name>
      </trkpt>
      <trkpt lat="35.422057" lon="136.879632" muitiRoute="1">
        <name>蘇原東門町二丁目</name>
      </trkpt>
      <trkpt lat="35.426829" lon="136.878806" muitiRoute="1">
        <name>蘇原清住町三丁目</name>
      </trkpt>
      <trkpt lat="35.427481" lon="136.879831" muitiRoute="1">
        <name>蘇原清住町四丁目</name>
      </trkpt>
      <trkpt lat="35.427217" lon="136.88145" muitiRoute="1">
        <name>蘇原持田町五丁目</name>
      </trkpt>
      <trkpt lat="35.428615" lon="136.882752" muitiRoute="1">
        <name>蘇原持田町四丁目</name>
      </trkpt>
      <trkpt lat="35.429962" lon="136.881572" muitiRoute="1">
        <name>蘇原持田町三丁目</name>
      </trkpt>
      <trkpt lat="35.429502" lon="136.885325" muitiRoute="1">
        <name>テクノプラザ四丁目</name>
      </trkpt>
      <trkpt lat="35.422969" lon="136.882466" muitiRoute="1">
        <name>蘇原東門町三丁目</name>
      </trkpt>
      <trkpt lat="35.421147" lon="136.882649" muitiRoute="1">
        <name>蘇原新生町一丁目</name>
      </trkpt>
      <trkpt lat="35.422061" lon="136.889215" muitiRoute="1">
        <name>テクノプラザ二丁目</name>
      </trkpt>
      <trkpt lat="35.430477" lon="136.886843" muitiRoute="1">
        <name>須衛町二丁目</name>
      </trkpt>
      <trkpt lat="35.432243" lon="136.88388" muitiRoute="1">
        <name>東山四丁目</name>
      </trkpt>
      <trkpt lat="35.431316" lon="136.882728" muitiRoute="1">
        <name>東山二丁目</name>
      </trkpt>
      <trkpt lat="35.432365" lon="136.880897" muitiRoute="1">
        <name>東山一丁目</name>
      </trkpt>
      <trkpt lat="35.433549" lon="136.881375" muitiRoute="1">
        <name>東山三丁目</name>
      </trkpt>
      <trkpt lat="35.434042" lon="136.88292" muitiRoute="1">
        <name>東山五丁目</name>
      </trkpt>
      <trkpt lat="35.436389" lon="136.890481" muitiRoute="1">
        <name>須衛町三丁目</name>
      </trkpt>
      <trkpt lat="35.431476" lon="136.895271" muitiRoute="1">
        <name>須衛町五丁目</name>
      </trkpt>
      <trkpt lat="35.42947" lon="136.890082" muitiRoute="1">
        <name>須衛町四丁目</name>
      </trkpt>
      <trkpt lat="35.426487" lon="136.89037" muitiRoute="1">
        <name>テクノプラザ一丁目</name>
      </trkpt>
      <trkpt lat="35.423618" lon="136.894337" muitiRoute="1">
        <name>テクノプラザ三丁目</name>
      </trkpt>
      <trkpt lat="35.423351" lon="136.897764" muitiRoute="1">
        <name>須衛町六丁目</name>
      </trkpt>
      <trkpt lat="35.417432" lon="136.897192" muitiRoute="1">
        <name>各務西町三丁目</name>
      </trkpt>
      <trkpt lat="35.418969" lon="136.892732" muitiRoute="1">
        <name>各務船山町三丁目</name>
      </trkpt>
      <trkpt lat="35.416366" lon="136.892274" muitiRoute="1">
        <name>各務西町二丁目</name>
      </trkpt>
      <trkpt lat="35.411405" lon="136.892469" muitiRoute="1">
        <name>各務西町五丁目</name>
      </trkpt>
      <trkpt lat="35.412462" lon="136.89831" muitiRoute="1">
        <name>各務西町六丁目</name>
      </trkpt>
      <trkpt lat="35.418022" lon="136.888793" muitiRoute="1">
        <name>各務船山町二丁目</name>
      </trkpt>
      <trkpt lat="35.419008" lon="136.885819" muitiRoute="1">
        <name>各務船山町一丁目</name>
      </trkpt>
      <trkpt lat="35.418426" lon="136.882558" muitiRoute="1">
        <name>蘇原新生町二丁目</name>
      </trkpt>
      <trkpt lat="35.416612" lon="136.882678" muitiRoute="1">
        <name>蘇原新生町三丁目</name>
      </trkpt>
      <trkpt lat="35.415669" lon="136.880604" muitiRoute="1">
        <name>蘇原坂井町一丁目</name>
      </trkpt>
      <trkpt lat="35.413171" lon="136.881424" muitiRoute="1">
        <name>蘇原坂井町三丁目</name>
      </trkpt>
      <trkpt lat="35.41141" lon="136.880581" muitiRoute="1">
        <name>蘇原中央町一丁目</name>
      </trkpt>
      <trkpt lat="35.410194" lon="136.880195" muitiRoute="1">
        <name>蘇原中央町二丁目</name>
      </trkpt>
      <trkpt lat="35.410074" lon="136.885822" muitiRoute="1">
        <name>各務西町四丁目</name>
      </trkpt>
      <trkpt lat="35.414665" lon="136.885588" muitiRoute="1">
        <name>各務西町一丁目</name>
      </trkpt>
      <trkpt lat="35.413512" lon="136.879145" muitiRoute="1">
        <name>蘇原坂井町二丁目</name>
      </trkpt>
      <trkpt lat="35.413784" lon="136.876763" muitiRoute="1">
        <name>蘇原東島町三丁目</name>
      </trkpt>
      <trkpt lat="35.413636" lon="136.873888" muitiRoute="1">
        <name>蘇原東島町二丁目</name>
      </trkpt>
      <trkpt lat="35.414593" lon="136.871672" muitiRoute="1">
        <name>蘇原東島町一丁目</name>
      </trkpt>
      <trkpt lat="35.416255" lon="136.873432" muitiRoute="1">
        <name>蘇原和合町一丁目</name>
      </trkpt>
      <trkpt lat="35.418609" lon="136.872297" muitiRoute="1">
        <name>蘇原昭栄町二丁目</name>
      </trkpt>
      <trkpt lat="35.418633" lon="136.874714" muitiRoute="1">
        <name>蘇原昭栄町三丁目</name>
      </trkpt>
      <trkpt lat="35.418576" lon="136.877079" muitiRoute="1">
        <name>蘇原昭栄町四丁目</name>
      </trkpt>
      <trkpt lat="35.416596" lon="136.877715" muitiRoute="1">
        <name>蘇原和合町二丁目</name>
      </trkpt>
      <trkpt lat="35.418528" lon="136.879496" muitiRoute="1">
        <name>蘇原昭栄町五丁目</name>
      </trkpt>
      <trkpt lat="35.410538" lon="136.873625" muitiRoute="1">
        <name>蘇原東栄町一丁目</name>
      </trkpt>
      <trkpt lat="35.410456" lon="136.871147" muitiRoute="1">
        <name>蘇原野口町五丁目</name>
      </trkpt>
      <trkpt lat="35.410851" lon="136.869035" muitiRoute="1">
        <name>蘇原野口町四丁目</name>
      </trkpt>
      <trkpt lat="35.412993" lon="136.868976" muitiRoute="1">
        <name>蘇原野口町三丁目</name>
      </trkpt>
      <trkpt lat="35.414525" lon="136.869947" muitiRoute="1">
        <name>蘇原熊田町二丁目</name>
      </trkpt>
      <trkpt lat="35.415408" lon="136.868329" muitiRoute="1">
        <name>蘇原熊田町一丁目</name>
      </trkpt>
      <trkpt lat="35.416782" lon="136.86782" muitiRoute="1">
        <name>蘇原野口町六丁目</name>
      </trkpt>
      <trkpt lat="35.417438" lon="136.869437" muitiRoute="1">
        <name>蘇原熊田町三丁目</name>
      </trkpt>
      <trkpt lat="35.418741" lon="136.869949" muitiRoute="1">
        <name>蘇原昭栄町一丁目</name>
      </trkpt>
      <trkpt lat="35.41853" lon="136.867899" muitiRoute="1">
        <name>蘇原古市場町四丁目</name>
      </trkpt>
      <trkpt lat="35.418616" lon="136.866621" muitiRoute="1">
        <name>蘇原古市場町三丁目</name>
      </trkpt>
      <trkpt lat="35.418787" lon="136.865176" muitiRoute="1">
        <name>蘇原古市場町二丁目</name>
      </trkpt>
      <trkpt lat="35.418763" lon="136.863199" muitiRoute="1">
        <name>蘇原島崎町四丁目</name>
      </trkpt>
      <trkpt lat="35.417298" lon="136.861965" muitiRoute="1">
        <name>蘇原島崎町二丁目</name>
      </trkpt>
      <trkpt lat="35.415279" lon="136.861863" muitiRoute="1">
        <name>蘇原寺島町一丁目</name>
      </trkpt>
      <trkpt lat="35.415285" lon="136.863481" muitiRoute="1">
        <name>蘇原寺島町二丁目</name>
      </trkpt>
      <trkpt lat="35.414252" lon="136.865006" muitiRoute="1">
        <name>蘇原野口町一丁目</name>
      </trkpt>
      <trkpt lat="35.414512" lon="136.866684" muitiRoute="1">
        <name>蘇原野口町二丁目</name>
      </trkpt>
      <trkpt lat="35.416663" lon="136.865152" muitiRoute="1">
        <name>蘇原古市場町一丁目</name>
      </trkpt>
      <trkpt lat="35.419259" lon="136.861245" muitiRoute="1">
        <name>蘇原島崎町三丁目</name>
      </trkpt>
      <trkpt lat="35.416275" lon="136.860137" muitiRoute="1">
        <name>蘇原島崎町一丁目</name>
      </trkpt>
      <trkpt lat="35.411863" lon="136.861135" muitiRoute="1">
        <name>蘇原青雲町二丁目</name>
      </trkpt>
      <trkpt lat="35.411796" lon="136.862888" muitiRoute="1">
        <name>蘇原青雲町三丁目</name>
      </trkpt>
      <trkpt lat="35.410106" lon="136.864494" muitiRoute="1">
        <name>蘇原新栄町一丁目</name>
      </trkpt>
      <trkpt lat="35.409973" lon="136.866655" muitiRoute="1">
        <name>蘇原新栄町二丁目</name>
      </trkpt>
      <trkpt lat="35.40727" lon="136.866732" muitiRoute="1">
        <name>蘇原菊園町四丁目</name>
      </trkpt>
      <trkpt lat="35.406073" lon="136.867048" muitiRoute="1">
        <name>蘇原菊園町三丁目</name>
      </trkpt>
      <trkpt lat="35.404814" lon="136.867099" muitiRoute="1">
        <name>蘇原菊園町二丁目</name>
      </trkpt>
      <trkpt lat="35.403603" lon="136.867269" muitiRoute="1">
        <name>蘇原菊園町一丁目</name>
      </trkpt>
      <trkpt lat="35.402416" lon="136.867598" muitiRoute="1">
        <name>蘇原月丘町一丁目</name>
      </trkpt>
      <trkpt lat="35.401263" lon="136.867705" muitiRoute="1">
        <name>蘇原緑町一丁目</name>
      </trkpt>
      <trkpt lat="35.4011884" lon="136.8680753" muitiRoute="1">
        <name>蘇原三柿野町</name>
      </trkpt>
      <trkpt lat="35.400222" lon="136.867704" muitiRoute="1">
        <name>蘇原六軒町一丁目</name>
      </trkpt>
      <trkpt lat="35.400481" lon="136.865777" muitiRoute="1">
        <name>蘇原六軒町二丁目</name>
      </trkpt>
      <trkpt lat="35.401342" lon="136.865804" muitiRoute="1">
        <name>蘇原緑町二丁目</name>
      </trkpt>
      <trkpt lat="35.402251" lon="136.865729" muitiRoute="1">
        <name>蘇原月丘町二丁目</name>
      </trkpt>
      <trkpt lat="35.403489" lon="136.865496" muitiRoute="1">
        <name>蘇原旭町一丁目</name>
      </trkpt>
      <trkpt lat="35.404612" lon="136.865209" muitiRoute="1">
        <name>蘇原旭町二丁目</name>
      </trkpt>
      <trkpt lat="35.405917" lon="136.865146" muitiRoute="1">
        <name>蘇原旭町三丁目</name>
      </trkpt>
      <trkpt lat="35.407162" lon="136.865127" muitiRoute="1">
        <name>蘇原旭町四丁目</name>
      </trkpt>
      <trkpt lat="35.407149" lon="136.862953" muitiRoute="1">
        <name>蘇原柿沢町三丁目</name>
      </trkpt>
      <trkpt lat="35.405948" lon="136.862899" muitiRoute="1">
        <name>蘇原柿沢町二丁目</name>
      </trkpt>
      <trkpt lat="35.404461" lon="136.862965" muitiRoute="1">
        <name>蘇原柿沢町一丁目</name>
      </trkpt>
      <trkpt lat="35.403437" lon="136.863501" muitiRoute="1">
        <name>蘇原早苗町</name>
      </trkpt>
      <trkpt lat="35.403672" lon="136.8642558" muitiRoute="1">
        <name>蘇原瑞雲町</name>
      </trkpt>
      <trkpt lat="35.402356" lon="136.863491" muitiRoute="1">
        <name>蘇原月丘町三丁目</name>
      </trkpt>
      <trkpt lat="35.401546" lon="136.863503" muitiRoute="1">
        <name>蘇原緑町三丁目</name>
      </trkpt>
      <trkpt lat="35.400503" lon="136.863465" muitiRoute="1">
        <name>蘇原六軒町三丁目</name>
      </trkpt>
      <trkpt lat="35.4000952" lon="136.8616702" muitiRoute="1">
        <name>蘇原六軒町</name>
      </trkpt>
      <trkpt lat="35.402159" lon="136.861264" muitiRoute="1">
        <name>蘇原月丘町四丁目</name>
      </trkpt>
      <trkpt lat="35.403359" lon="136.860206" muitiRoute="1">
        <name>蘇原沢上町一丁目</name>
      </trkpt>
      <trkpt lat="35.404568" lon="136.860661" muitiRoute="1">
        <name>蘇原沢上町二丁目</name>
      </trkpt>
      <trkpt lat="35.405969" lon="136.860666" muitiRoute="1">
        <name>蘇原沢上町三丁目</name>
      </trkpt>
      <trkpt lat="35.407086" lon="136.860677" muitiRoute="1">
        <name>蘇原沢上町四丁目</name>
      </trkpt>
      <trkpt lat="35.408594" lon="136.861619" muitiRoute="1">
        <name>蘇原青雲町五丁目</name>
      </trkpt>
      <trkpt lat="35.40972" lon="136.860979" muitiRoute="1">
        <name>蘇原青雲町四丁目</name>
      </trkpt>
      <trkpt lat="35.407254" lon="136.86836" muitiRoute="1">
        <name>蘇原栄町四丁目</name>
      </trkpt>
      <trkpt lat="35.406181" lon="136.868358" muitiRoute="1">
        <name>蘇原栄町三丁目</name>
      </trkpt>
      <trkpt lat="35.404939" lon="136.868629" muitiRoute="1">
        <name>蘇原栄町二丁目</name>
      </trkpt>
      <trkpt lat="35.403757" lon="136.868758" muitiRoute="1">
        <name>蘇原栄町一丁目</name>
      </trkpt>
      <trkpt lat="35.401753" lon="136.86969" muitiRoute="1">
        <name>蘇原三柿野町三丁目</name>
      </trkpt>
      <trkpt lat="35.400029" lon="136.869846" muitiRoute="1">
        <name>蘇原三柿野町二丁目</name>
      </trkpt>
      <trkpt lat="35.408726" lon="136.869125" muitiRoute="1">
        <name>蘇原新栄町三丁目</name>
      </trkpt>
      <trkpt lat="35.399825" lon="136.872653" muitiRoute="1">
        <name>蘇原三柿野町一丁目</name>
      </trkpt>
      <trkpt lat="35.401871" lon="136.873856" muitiRoute="1">
        <name>川崎町</name>
      </trkpt>
      <trkpt lat="35.404205" lon="136.871912" muitiRoute="1">
        <name>蘇原興亜町一丁目</name>
      </trkpt>
      <trkpt lat="35.403847" lon="136.870365" muitiRoute="1">
        <name>蘇原瑞雲町一丁目</name>
      </trkpt>
      <trkpt lat="35.40509" lon="136.870158" muitiRoute="1">
        <name>蘇原瑞雲町二丁目</name>
      </trkpt>
      <trkpt lat="35.406286" lon="136.870078" muitiRoute="1">
        <name>蘇原瑞雲町三丁目</name>
      </trkpt>
      <trkpt lat="35.407332" lon="136.870014" muitiRoute="1">
        <name>蘇原瑞雲町四丁目</name>
      </trkpt>
      <trkpt lat="35.406024" lon="136.871721" muitiRoute="1">
        <name>蘇原興亜町二丁目</name>
      </trkpt>
      <trkpt lat="35.407315" lon="136.872402" muitiRoute="1">
        <name>蘇原興亜町三丁目</name>
      </trkpt>
      <trkpt lat="35.40879" lon="136.874506" muitiRoute="1">
        <name>蘇原東栄町二丁目</name>
      </trkpt>
      <trkpt lat="35.409211" lon="136.877497" muitiRoute="1">
        <name>蘇原東島町四丁目</name>
      </trkpt>
      <trkpt lat="35.406193" lon="136.87907" muitiRoute="1">
        <name>蘇原興亜町五丁目</name>
      </trkpt>
      <trkpt lat="35.404863" lon="136.879504" muitiRoute="1">
        <name>鵜沼川崎町一丁目</name>
      </trkpt>
      <trkpt lat="35.402324" lon="136.879171" muitiRoute="1">
        <name>鵜沼川崎町二丁目</name>
      </trkpt>
      <trkpt lat="35.401283" lon="136.879967" muitiRoute="1">
        <name>鵜沼川崎町三丁目</name>
      </trkpt>
      <trkpt lat="35.4011097" lon="136.8786325" muitiRoute="1">
        <name>鵜沼川崎町</name>
      </trkpt>
      <trkpt lat="35.405668" lon="136.874968" muitiRoute="1">
        <name>蘇原興亜町四丁目</name>
      </trkpt>
      <trkpt lat="35.406932" lon="136.880333" muitiRoute="1">
        <name>蘇原中央町四丁目</name>
      </trkpt>
      <trkpt lat="35.408219" lon="136.880319" muitiRoute="1">
        <name>蘇原中央町三丁目</name>
      </trkpt>
      <trkpt lat="35.404677" lon="136.883092" muitiRoute="1">
        <name>鵜沼三ツ池町一丁目</name>
      </trkpt>
      <trkpt lat="35.401935" lon="136.8853" muitiRoute="1">
        <name>鵜沼三ツ池町二丁目</name>
      </trkpt>
      <trkpt lat="35.406196" lon="136.888562" muitiRoute="1">
        <name>各務山の前町一丁目</name>
      </trkpt>
      <trkpt lat="35.4088585" lon="136.8891227" muitiRoute="1">
        <name>各務山一丁目</name>
      </trkpt>
      <trkpt lat="35.39829" lon="136.889301" muitiRoute="1">
        <name>鵜沼三ツ池町四丁目</name>
      </trkpt>
      <trkpt lat="35.399038" lon="136.88011" muitiRoute="1">
        <name>蘇原三柿野町</name>
      </trkpt>
      <trkpt lat="35.3991762" lon="136.8935083" muitiRoute="1">
        <name>鵜沼三ツ池町</name>
      </trkpt>
      <trkpt lat="35.399034" lon="136.89541" muitiRoute="1">
        <name>鵜沼三ツ池町五丁目</name>
      </trkpt>
      <trkpt lat="35.399986" lon="136.898447" muitiRoute="1">
        <name>鵜沼各務原町二丁目</name>
      </trkpt>
      <trkpt lat="35.394728" lon="136.893745" muitiRoute="1">
        <name>鵜沼三ツ池町六丁目</name>
      </trkpt>
      <trkpt lat="35.391102" lon="136.893193" muitiRoute="1">
        <name>鵜沼朝日町一丁目</name>
      </trkpt>
      <trkpt lat="35.401644" lon="136.892102" muitiRoute="1">
        <name>鵜沼三ツ池町三丁目</name>
      </trkpt>
      <trkpt lat="35.406504" lon="136.895418" muitiRoute="1">
        <name>各務山の前町二丁目</name>
      </trkpt>
      <trkpt lat="35.402673" lon="136.89851" muitiRoute="1">
        <name>鵜沼各務原町一丁目</name>
      </trkpt>
      <trkpt lat="35.401144" lon="136.902828" muitiRoute="1">
        <name>鵜沼各務原町三丁目</name>
      </trkpt>
      <trkpt lat="35.402238" lon="136.907147" muitiRoute="1">
        <name>鵜沼各務原町四丁目</name>
      </trkpt>
      <trkpt lat="35.4024472" lon="136.9079346" muitiRoute="1">
        <name>鵜沼各務原町</name>
      </trkpt>
      <trkpt lat="35.40713" lon="136.906337" muitiRoute="1">
        <name>各務山の前町四丁目</name>
      </trkpt>
      <trkpt lat="35.406692" lon="136.900958" muitiRoute="1">
        <name>各務山の前町三丁目</name>
      </trkpt>
      <trkpt lat="35.395742" lon="136.900763" muitiRoute="1">
        <name>鵜沼各務原町七丁目</name>
      </trkpt>
      <trkpt lat="35.391392" lon="136.90025" muitiRoute="1">
        <name>鵜沼朝日町二丁目</name>
      </trkpt>
      <trkpt lat="35.3905762" lon="136.9042889" muitiRoute="1">
        <name>鵜沼朝日町</name>
      </trkpt>
      <trkpt lat="35.392816" lon="136.906734" muitiRoute="1">
        <name>鵜沼朝日町四丁目</name>
      </trkpt>
      <trkpt lat="35.396297" lon="136.905627" muitiRoute="1">
        <name>鵜沼各務原町八丁目</name>
      </trkpt>
      <trkpt lat="35.398656" lon="136.909785" muitiRoute="1">
        <name>鵜沼各務原町六丁目</name>
      </trkpt>
      <trkpt lat="35.389691" lon="136.907182" muitiRoute="1">
        <name>鵜沼朝日町五丁目</name>
      </trkpt>
      <trkpt lat="35.387165" lon="136.90783" muitiRoute="1">
        <name>鵜沼大伊木町二丁目</name>
      </trkpt>
      <trkpt lat="35.382162" lon="136.905046" muitiRoute="1">
        <name>鵜沼大伊木町四丁目</name>
      </trkpt>
      <trkpt lat="35.384079" lon="136.901326" muitiRoute="1">
        <name>鵜沼大伊木町三丁目</name>
      </trkpt>
      <trkpt lat="35.387532" lon="136.900571" muitiRoute="1">
        <name>鵜沼朝日町三丁目</name>
      </trkpt>
      <trkpt lat="35.387087" lon="136.895275" muitiRoute="1">
        <name>前渡東町六丁目</name>
      </trkpt>
      <trkpt lat="35.388031" lon="136.890986" muitiRoute="1">
        <name>前渡東町五丁目</name>
      </trkpt>
      <trkpt lat="35.381968" lon="136.892099" muitiRoute="1">
        <name>前渡東町八丁目</name>
      </trkpt>
      <trkpt lat="35.381445" lon="136.897493" muitiRoute="1">
        <name>前渡東町九丁目</name>
      </trkpt>
      <trkpt lat="35.381902" lon="136.888047" muitiRoute="1">
        <name>前渡東町七丁目</name>
      </trkpt>
      <trkpt lat="35.380967" lon="136.88431" muitiRoute="1">
        <name>前渡東町四丁目</name>
      </trkpt>
      <trkpt lat="35.384701" lon="136.884872" muitiRoute="1">
        <name>前渡東町三丁目</name>
      </trkpt>
      <trkpt lat="35.387864" lon="136.883589" muitiRoute="1">
        <name>前渡東町一丁目</name>
      </trkpt>
      <trkpt lat="35.387832" lon="136.88061" muitiRoute="1">
        <name>前渡北町四丁目</name>
      </trkpt>
      <trkpt lat="35.387743" lon="136.887003" muitiRoute="1">
        <name>前渡東町二丁目</name>
      </trkpt>
      <trkpt lat="35.381101" lon="136.880306" muitiRoute="1">
        <name>前渡東町</name>
      </trkpt>
      <trkpt lat="35.384205" lon="136.876126" muitiRoute="1">
        <name>前渡西町五丁目</name>
      </trkpt>
      <trkpt lat="35.384353" lon="136.874812" muitiRoute="1">
        <name>前渡西町四丁目</name>
      </trkpt>
      <trkpt lat="35.384438" lon="136.87326" muitiRoute="1">
        <name>前渡西町三丁目</name>
      </trkpt>
      <trkpt lat="35.384487" lon="136.871777" muitiRoute="1">
        <name>前渡西町二丁目</name>
      </trkpt>
      <trkpt lat="35.384705" lon="136.870397" muitiRoute="1">
        <name>前渡西町一丁目</name>
      </trkpt>
      <trkpt lat="35.385878" lon="136.871574" muitiRoute="1">
        <name>前渡西町八丁目</name>
      </trkpt>
      <trkpt lat="35.3878" lon="136.871534" muitiRoute="1">
        <name>前渡西町十二丁目</name>
      </trkpt>
      <trkpt lat="35.3884" lon="136.873588" muitiRoute="1">
        <name>前渡北町一丁目</name>
      </trkpt>
      <trkpt lat="35.387927" lon="136.875988" muitiRoute="1">
        <name>前渡北町二丁目</name>
      </trkpt>
      <trkpt lat="35.386045" lon="136.875151" muitiRoute="1">
        <name>前渡西町七丁目</name>
      </trkpt>
      <trkpt lat="35.386191" lon="136.878067" muitiRoute="1">
        <name>前渡西町六丁目</name>
      </trkpt>
      <trkpt lat="35.388154" lon="136.878346" muitiRoute="1">
        <name>前渡北町三丁目</name>
      </trkpt>
      <trkpt lat="35.379708" lon="136.873256" muitiRoute="1">
        <name>前渡西町</name>
      </trkpt>
      <trkpt lat="35.376756" lon="136.867841" muitiRoute="1">
        <name>下切町</name>
      </trkpt>
      <trkpt lat="35.379624" lon="136.862589" muitiRoute="1">
        <name>松本町二丁目</name>
      </trkpt>
      <trkpt lat="35.37545" lon="136.860732" muitiRoute="1">
        <name>松本町</name>
      </trkpt>
      <trkpt lat="35.378423" lon="136.859223" muitiRoute="1">
        <name>松本町一丁目</name>
      </trkpt>
      <trkpt lat="35.377919" lon="136.855731" muitiRoute="1">
        <name>上中屋町五丁目</name>
      </trkpt>
      <trkpt lat="35.378703" lon="136.852705" muitiRoute="1">
        <name>上中屋町三丁目</name>
      </trkpt>
      <trkpt lat="35.381056" lon="136.850298" muitiRoute="1">
        <name>上戸町五丁目</name>
      </trkpt>
      <trkpt lat="35.383101" lon="136.850903" muitiRoute="1">
        <name>上戸町六丁目</name>
      </trkpt>
      <trkpt lat="35.385105" lon="136.851136" muitiRoute="1">
        <name>上戸町七丁目</name>
      </trkpt>
      <trkpt lat="35.383754" lon="136.854206" muitiRoute="1">
        <name>山脇町</name>
      </trkpt>
      <trkpt lat="35.381803" lon="136.854752" muitiRoute="1">
        <name>山脇町六丁目</name>
      </trkpt>
      <trkpt lat="35.380296" lon="136.855762" muitiRoute="1">
        <name>上中屋町四丁目</name>
      </trkpt>
      <trkpt lat="35.381118" lon="136.858635" muitiRoute="1">
        <name>山脇町五丁目</name>
      </trkpt>
      <trkpt lat="35.383307" lon="136.859825" muitiRoute="1">
        <name>山脇町三丁目</name>
      </trkpt>
      <trkpt lat="35.383583" lon="136.856451" muitiRoute="1">
        <name>山脇町七丁目</name>
      </trkpt>
      <trkpt lat="35.384606" lon="136.861026" muitiRoute="1">
        <name>山脇町一丁目</name>
      </trkpt>
      <trkpt lat="35.385732" lon="136.861811" muitiRoute="1">
        <name>下切町六丁目</name>
      </trkpt>
      <trkpt lat="35.386922" lon="136.861195" muitiRoute="1">
        <name>下切町五丁目</name>
      </trkpt>
      <trkpt lat="35.388109" lon="136.862097" muitiRoute="1">
        <name>下切町四丁目</name>
      </trkpt>
      <trkpt lat="35.387233" lon="136.8635282" muitiRoute="1">
        <name>下切町三丁目</name>
      </trkpt>
      <trkpt lat="35.388268" lon="136.865108" muitiRoute="1">
        <name>前渡西町十丁目</name>
      </trkpt>
      <trkpt lat="35.385568" lon="136.86493" muitiRoute="1">
        <name>下切町二丁目</name>
      </trkpt>
      <trkpt lat="35.383798" lon="136.865508" muitiRoute="1">
        <name>下切町八丁目</name>
      </trkpt>
      <trkpt lat="35.382047" lon="136.865422" muitiRoute="1">
        <name>下切町九丁目</name>
      </trkpt>
      <trkpt lat="35.384255" lon="136.863603" muitiRoute="1">
        <name>下切町七丁目</name>
      </trkpt>
      <trkpt lat="35.383164" lon="136.862175" muitiRoute="1">
        <name>山脇町二丁目</name>
      </trkpt>
      <trkpt lat="35.381962" lon="136.861268" muitiRoute="1">
        <name>山脇町四丁目</name>
      </trkpt>
      <trkpt lat="35.385094" lon="136.868142" muitiRoute="1">
        <name>下切町一丁目</name>
      </trkpt>
      <trkpt lat="35.386213" lon="136.867757" muitiRoute="1">
        <name>前渡西町九丁目</name>
      </trkpt>
      <trkpt lat="35.388114" lon="136.867883" muitiRoute="1">
        <name>前渡西町十一丁目</name>
      </trkpt>
      <trkpt lat="35.392002" lon="136.867496" muitiRoute="1">
        <name>那加官有地無番地</name>
      </trkpt>
      <trkpt lat="35.398185" lon="136.859121" muitiRoute="1">
        <name>那加桐野外二ケ所大字入会地</name>
      </trkpt>
      <trkpt lat="35.399885" lon="136.856549" muitiRoute="1">
        <name>那加信長町三丁目</name>
      </trkpt>
      <trkpt lat="35.399782" lon="136.855014" muitiRoute="1">
        <name>那加信長町二丁目</name>
      </trkpt>
      <trkpt lat="35.399756" lon="136.853451" muitiRoute="1">
        <name>那加信長町一丁目</name>
      </trkpt>
      <trkpt lat="35.399692" lon="136.851834" muitiRoute="1">
        <name>那加織田町二丁目</name>
      </trkpt>
      <trkpt lat="35.399684" lon="136.850221" muitiRoute="1">
        <name>那加織田町一丁目</name>
      </trkpt>
      <trkpt lat="35.397781" lon="136.850431" muitiRoute="1">
        <name>那加住吉町二丁目</name>
      </trkpt>
      <trkpt lat="35.397088" lon="136.851671" muitiRoute="1">
        <name>那加新加納外六ケ所大字入会地</name>
      </trkpt>
      <trkpt lat="35.397896" lon="136.852005" muitiRoute="1">
        <name>那加住吉町三丁目</name>
      </trkpt>
      <trkpt lat="35.398031" lon="136.853627" muitiRoute="1">
        <name>那加住吉町四丁目</name>
      </trkpt>
      <trkpt lat="35.398146" lon="136.855216" muitiRoute="1">
        <name>那加住吉町五丁目</name>
      </trkpt>
      <trkpt lat="35.401734" lon="136.855708" muitiRoute="1">
        <name>那加東新町二丁目</name>
      </trkpt>
      <trkpt lat="35.402962" lon="136.854965" muitiRoute="1">
        <name>蘇原希望町一丁目</name>
      </trkpt>
      <trkpt lat="35.404199" lon="136.853259" muitiRoute="1">
        <name>那加昭南町</name>
      </trkpt>
      <trkpt lat="35.405492" lon="136.852097" muitiRoute="1">
        <name>入会町三丁目</name>
      </trkpt>
      <trkpt lat="35.406646" lon="136.851844" muitiRoute="1">
        <name>入会町二丁目</name>
      </trkpt>
      <trkpt lat="35.407834" lon="136.851686" muitiRoute="1">
        <name>入会町一丁目</name>
      </trkpt>
      <trkpt lat="35.406333" lon="136.853778" muitiRoute="1">
        <name>入会町四丁目</name>
      </trkpt>
      <trkpt lat="35.408388" lon="136.854892" muitiRoute="1">
        <name>蘇原申子町三丁目</name>
      </trkpt>
      <trkpt lat="35.408237" lon="136.856439" muitiRoute="1">
        <name>蘇原吉新町一丁目</name>
      </trkpt>
      <trkpt lat="35.407123" lon="136.856141" muitiRoute="1">
        <name>蘇原希望町四丁目</name>
      </trkpt>
      <trkpt lat="35.406037" lon="136.85637" muitiRoute="1">
        <name>蘇原希望町三丁目</name>
      </trkpt>
      <trkpt lat="35.405041" lon="136.855923" muitiRoute="1">
        <name>蘇原希望町二丁目</name>
      </trkpt>
      <trkpt lat="35.404544" lon="136.858104" muitiRoute="1">
        <name>蘇原村雨町二丁目</name>
      </trkpt>
      <trkpt lat="35.403195" lon="136.857396" muitiRoute="1">
        <name>蘇原村雨町一丁目</name>
      </trkpt>
      <trkpt lat="35.401695" lon="136.859861" muitiRoute="1">
        <name>蘇原緑町四丁目</name>
      </trkpt>
      <trkpt lat="35.400091" lon="136.859753" muitiRoute="1">
        <name>蘇原六軒町四丁目</name>
      </trkpt>
      <trkpt lat="35.40607" lon="136.85861" muitiRoute="1">
        <name>蘇原村雨町三丁目</name>
      </trkpt>
      <trkpt lat="35.407214" lon="136.858523" muitiRoute="1">
        <name>蘇原村雨町四丁目</name>
      </trkpt>
      <trkpt lat="35.408358" lon="136.85938" muitiRoute="1">
        <name>蘇原吉新町三丁目</name>
      </trkpt>
      <trkpt lat="35.408975" lon="136.857951" muitiRoute="1">
        <name>蘇原吉新町二丁目</name>
      </trkpt>
      <trkpt lat="35.403548" lon="136.850505" muitiRoute="1">
        <name>那加雄飛ケ丘町</name>
      </trkpt>
      <trkpt lat="35.401394" lon="136.852261" muitiRoute="1">
        <name>那加東新町一丁目</name>
      </trkpt>
      <trkpt lat="35.400695" lon="136.84781" muitiRoute="1">
        <name>那加桜町二丁目</name>
      </trkpt>
      <trkpt lat="35.403645" lon="136.846111" muitiRoute="1">
        <name>那加桜町三丁目</name>
      </trkpt>
      <trkpt lat="35.402308" lon="136.844459" muitiRoute="1">
        <name>那加雲雀町</name>
      </trkpt>
      <trkpt lat="35.400842" lon="136.843345" muitiRoute="1">
        <name>那加門前町四丁目</name>
      </trkpt>
      <trkpt lat="35.404452" lon="136.844022" muitiRoute="1">
        <name>那加甥田町</name>
      </trkpt>
      <trkpt lat="35.406649" lon="136.84554" muitiRoute="1">
        <name>那加不動丘一丁目</name>
      </trkpt>
      <trkpt lat="35.409418" lon="136.845839" muitiRoute="1">
        <name>那加巾下町</name>
      </trkpt>
      <trkpt lat="35.40662" lon="136.848848" muitiRoute="1">
        <name>那加不動丘二丁目</name>
      </trkpt>
      <trkpt lat="35.408127" lon="136.841101" muitiRoute="1">
        <name>那加前洞新町四丁目</name>
      </trkpt>
      <trkpt lat="35.405508" lon="136.84024" muitiRoute="1">
        <name>那加前洞新町三丁目</name>
      </trkpt>
      <trkpt lat="35.399363" lon="136.843506" muitiRoute="1">
        <name>那加門前町三丁目</name>
      </trkpt>
      <trkpt lat="35.398014" lon="136.843603" muitiRoute="1">
        <name>那加門前町二丁目</name>
      </trkpt>
      <trkpt lat="35.396417" lon="136.843301" muitiRoute="1">
        <name>那加楠町</name>
      </trkpt>
      <trkpt lat="35.394134" lon="136.843367" muitiRoute="1">
        <name>三井東町一丁目</name>
      </trkpt>
      <trkpt lat="35.39479" lon="136.840403" muitiRoute="1">
        <name>三井北町三丁目</name>
      </trkpt>
      <trkpt lat="35.391604" lon="136.840107" muitiRoute="1">
        <name>三井町四丁目</name>
      </trkpt>
      <trkpt lat="35.391381" lon="136.845495" muitiRoute="1">
        <name>三井東町三丁目</name>
      </trkpt>
      <trkpt lat="35.394875" lon="136.846803" muitiRoute="1">
        <name>三井東町二丁目</name>
      </trkpt>
      <trkpt lat="35.396271" lon="136.846086" muitiRoute="1">
        <name>那加大東町</name>
      </trkpt>
      <trkpt lat="35.39766" lon="136.848765" muitiRoute="1">
        <name>那加住吉町一丁目</name>
      </trkpt>
      <trkpt lat="35.398802" lon="136.847805" muitiRoute="1">
        <name>那加桜町一丁目</name>
      </trkpt>
      <trkpt lat="35.398315" lon="136.840533" muitiRoute="1">
        <name>那加門前町一丁目</name>
      </trkpt>
      <trkpt lat="35.399027" lon="136.839306" muitiRoute="1">
        <name>那加北栄町</name>
      </trkpt>
      <trkpt lat="35.398951" lon="136.838103" muitiRoute="1">
        <name>那加元町</name>
      </trkpt>
      <trkpt lat="35.398827" lon="136.836933" muitiRoute="1">
        <name>那加日之出町</name>
      </trkpt>
      <trkpt lat="35.399212" lon="136.835904" muitiRoute="1">
        <name>那加本町</name>
      </trkpt>
      <trkpt lat="35.398719" lon="136.835164" muitiRoute="1">
        <name>那加楽天地町</name>
      </trkpt>
      <trkpt lat="35.397196" lon="136.834703" muitiRoute="1">
        <name>那加西那加町</name>
      </trkpt>
      <trkpt lat="35.396091" lon="136.835546" muitiRoute="1">
        <name>三井北町一丁目</name>
      </trkpt>
      <trkpt lat="35.394882" lon="136.834701" muitiRoute="1">
        <name>三井町一丁目</name>
      </trkpt>
      <trkpt lat="35.392711" lon="136.835641" muitiRoute="1">
        <name>三井町二丁目</name>
      </trkpt>
      <trkpt lat="35.390361" lon="136.836111" muitiRoute="1">
        <name>三井町三丁目</name>
      </trkpt>
      <trkpt lat="35.394804" lon="136.838258" muitiRoute="1">
        <name>三井北町二丁目</name>
      </trkpt>
      <trkpt lat="35.396594" lon="136.838877" muitiRoute="1">
        <name>那加南栄町</name>
      </trkpt>
      <trkpt lat="35.397844" lon="136.839046" muitiRoute="1">
        <name>那加栄町</name>
      </trkpt>
      <trkpt lat="35.397265" lon="136.837162" muitiRoute="1">
        <name>那加東那加町</name>
      </trkpt>
      <trkpt lat="35.398849" lon="136.83266" muitiRoute="1">
        <name>那加西野町</name>
      </trkpt>
      <trkpt lat="35.400068" lon="136.833919" muitiRoute="1">
        <name>那加新那加町</name>
      </trkpt>
      <trkpt lat="35.402013" lon="136.833489" muitiRoute="1">
        <name>那加太平町二丁目</name>
      </trkpt>
      <trkpt lat="35.401717" lon="136.831453" muitiRoute="1">
        <name>那加太平町一丁目</name>
      </trkpt>
      <trkpt lat="35.403968" lon="136.832441" muitiRoute="1">
        <name>那加幸町</name>
      </trkpt>
      <trkpt lat="35.405974" lon="136.831117" muitiRoute="1">
        <name>那加野畑町二丁目</name>
      </trkpt>
      <trkpt lat="35.407737" lon="136.830941" muitiRoute="1">
        <name>那加野畑町一丁目</name>
      </trkpt>
      <trkpt lat="35.407678" lon="136.833903" muitiRoute="1">
        <name>那加前野町三丁目</name>
      </trkpt>
      <trkpt lat="35.407365" lon="136.836423" muitiRoute="1">
        <name>那加前野町四丁目</name>
      </trkpt>
      <trkpt lat="35.404841" lon="136.83532" muitiRoute="1">
        <name>那加前洞新町一丁目</name>
      </trkpt>
      <trkpt lat="35.40239" lon="136.837667" muitiRoute="1">
        <name>那加東亜町</name>
      </trkpt>
      <trkpt lat="35.400232" lon="136.838303" muitiRoute="1">
        <name>那加吾妻町</name>
      </trkpt>
      <trkpt lat="35.403809" lon="136.839984" muitiRoute="1">
        <name>那加前洞新町二丁目</name>
      </trkpt>
      <trkpt lat="35.410218" lon="136.836938" muitiRoute="1">
        <name>那加前野町二丁目</name>
      </trkpt>
      <trkpt lat="35.413909" lon="136.836759" muitiRoute="1">
        <name>那加御屋敷町</name>
      </trkpt>
      <trkpt lat="35.413703" lon="136.833994" muitiRoute="1">
        <name>那加山下町二丁目</name>
      </trkpt>
      <trkpt lat="35.413622" lon="136.831658" muitiRoute="1">
        <name>那加山下町一丁目</name>
      </trkpt>
      <trkpt lat="35.410502" lon="136.833085" muitiRoute="1">
        <name>那加前野町一丁目</name>
      </trkpt>
      <trkpt lat="35.417739" lon="136.832848" muitiRoute="1">
        <name>那加西市場町七丁目</name>
      </trkpt>
      <trkpt lat="35.413811" lon="136.839602" muitiRoute="1">
        <name>那加東野町一丁目</name>
      </trkpt>
      <trkpt lat="35.440703" lon="136.877312" muitiRoute="1">
        <name>須衛町一丁目</name>
      </trkpt>
      <trkpt lat="35.43587" lon="136.901213" muitiRoute="1">
        <name>須衛稲田</name>
      </trkpt>
      <trkpt lat="35.438008" lon="136.908339" muitiRoute="1">
        <name>須衛</name>
      </trkpt>
      <trkpt lat="35.426628" lon="136.908172" muitiRoute="1">
        <name>須衛町八丁目</name>
      </trkpt>
      <trkpt lat="35.423002" lon="136.907711" muitiRoute="1">
        <name>各務東町二丁目</name>
      </trkpt>
      <trkpt lat="35.424285" lon="136.902842" muitiRoute="1">
        <name>各務おがせ町一丁目</name>
      </trkpt>
      <trkpt lat="35.42007" lon="136.900528" muitiRoute="1">
        <name>各務おがせ町二丁目</name>
      </trkpt>
      <trkpt lat="35.428926" lon="136.901469" muitiRoute="1">
        <name>須衛町七丁目</name>
      </trkpt>
      <trkpt lat="35.419406" lon="136.905544" muitiRoute="1">
        <name>各務おがせ町三丁目</name>
      </trkpt>
      <trkpt lat="35.416187" lon="136.907295" muitiRoute="1">
        <name>各務おがせ町五丁目</name>
      </trkpt>
      <trkpt lat="35.418279" lon="136.9096" muitiRoute="1">
        <name>各務東町四丁目</name>
      </trkpt>
      <trkpt lat="35.411371" lon="136.908678" muitiRoute="1">
        <name>各務おがせ町七丁目</name>
      </trkpt>
      <trkpt lat="35.412424" lon="136.905016" muitiRoute="1">
        <name>各務おがせ町六丁目</name>
      </trkpt>
      <trkpt lat="35.416385" lon="136.901645" muitiRoute="1">
        <name>各務おがせ町四丁目</name>
      </trkpt>
      <trkpt lat="35.41981" lon="136.914565" muitiRoute="1">
        <name>各務東町六丁目</name>
      </trkpt>
      <trkpt lat="35.415592" lon="136.916058" muitiRoute="1">
        <name>各務東町七丁目</name>
      </trkpt>
      <trkpt lat="35.411435" lon="136.914796" muitiRoute="1">
        <name>各務おがせ町八丁目</name>
      </trkpt>
      <trkpt lat="35.42022" lon="136.911357" muitiRoute="1">
        <name>各務東町三丁目</name>
      </trkpt>
      <trkpt lat="35.424951" lon="136.912725" muitiRoute="1">
        <name>各務東町一丁目</name>
      </trkpt>
      <trkpt lat="35.423187" lon="136.918952" muitiRoute="1">
        <name>各務東町五丁目</name>
      </trkpt>
      <trkpt lat="35.425504" lon="136.926423" muitiRoute="1">
        <name>各務</name>
      </trkpt>
      <trkpt lat="35.419571" lon="136.933264" muitiRoute="1">
        <name>鵜沼大安寺町一丁目</name>
      </trkpt>
      <trkpt lat="35.413923" lon="136.931102" muitiRoute="1">
        <name>八木山</name>
      </trkpt>
      <trkpt lat="35.411444" lon="136.931437" muitiRoute="1">
        <name>つつじが丘二丁目</name>
      </trkpt>
      <trkpt lat="35.4110381" lon="136.93241" muitiRoute="1">
        <name>つつじが丘</name>
      </trkpt>
      <trkpt lat="35.41137" lon="136.934075" muitiRoute="1">
        <name>つつじが丘三丁目</name>
      </trkpt>
      <trkpt lat="35.413805" lon="136.939138" muitiRoute="1">
        <name>鵜沼大安寺町二丁目</name>
      </trkpt>
      <trkpt lat="35.408097" lon="136.938137" muitiRoute="1">
        <name>鵜沼西町二丁目</name>
      </trkpt>
      <trkpt lat="35.407524" lon="136.935465" muitiRoute="1">
        <name>つつじが丘八丁目</name>
      </trkpt>
      <trkpt lat="35.409288" lon="136.934246" muitiRoute="1">
        <name>つつじが丘五丁目</name>
      </trkpt>
      <trkpt lat="35.407487" lon="136.932553" muitiRoute="1">
        <name>つつじが丘七丁目</name>
      </trkpt>
      <trkpt lat="35.407916" lon="136.930296" muitiRoute="1">
        <name>つつじが丘六丁目</name>
      </trkpt>
      <trkpt lat="35.409575" lon="136.930509" muitiRoute="1">
        <name>つつじが丘四丁目</name>
      </trkpt>
      <trkpt lat="35.404904" lon="136.933618" muitiRoute="1">
        <name>鵜沼西町一丁目</name>
      </trkpt>
      <trkpt lat="35.4026142" lon="136.9330255" muitiRoute="1">
        <name>鵜沼西町</name>
      </trkpt>
      <trkpt lat="35.401228" lon="136.933228" muitiRoute="1">
        <name>鵜沼西町三丁目</name>
      </trkpt>
      <trkpt lat="35.400875" lon="136.938351" muitiRoute="1">
        <name>鵜沼東町四丁目</name>
      </trkpt>
      <trkpt lat="35.404948" lon="136.93949" muitiRoute="1">
        <name>鵜沼東町一丁目</name>
      </trkpt>
      <trkpt lat="35.407142" lon="136.927965" muitiRoute="1">
        <name>松が丘七丁目</name>
      </trkpt>
      <trkpt lat="35.408975" lon="136.928212" muitiRoute="1">
        <name>松が丘五丁目</name>
      </trkpt>
      <trkpt lat="35.409001" lon="136.926144" muitiRoute="1">
        <name>松が丘四丁目</name>
      </trkpt>
      <trkpt lat="35.4099622" lon="136.9248236" muitiRoute="1">
        <name>松が丘</name>
      </trkpt>
      <trkpt lat="35.407339" lon="136.925953" muitiRoute="1">
        <name>松が丘六丁目</name>
      </trkpt>
      <trkpt lat="35.406017" lon="136.923888" muitiRoute="1">
        <name>鵜沼羽場町二丁目</name>
      </trkpt>
      <trkpt lat="35.4037108" lon="136.9234332" muitiRoute="1">
        <name>鵜沼羽場町</name>
      </trkpt>
      <trkpt lat="35.402467" lon="136.92369" muitiRoute="1">
        <name>鵜沼羽場町四丁目</name>
      </trkpt>
      <trkpt lat="35.402666" lon="136.927422" muitiRoute="1">
        <name>鵜沼羽場町五丁目</name>
      </trkpt>
      <trkpt lat="35.409033" lon="136.92176" muitiRoute="1">
        <name>松が丘二丁目</name>
      </trkpt>
      <trkpt lat="35.411223" lon="136.92268" muitiRoute="1">
        <name>松が丘</name>
      </trkpt>
      <trkpt lat="35.41005" lon="136.924751" muitiRoute="1">
        <name>松が丘三丁目</name>
      </trkpt>
      <trkpt lat="35.41164" lon="136.929088" muitiRoute="1">
        <name>つつじが丘一丁目</name>
      </trkpt>
      <trkpt lat="35.408301" lon="136.917957" muitiRoute="1">
        <name>松が丘一丁目</name>
      </trkpt>
      <trkpt lat="35.4059" lon="136.918641" muitiRoute="1">
        <name>鵜沼羽場町一丁目</name>
      </trkpt>
      <trkpt lat="35.402807" lon="136.918282" muitiRoute="1">
        <name>鵜沼羽場町三丁目</name>
      </trkpt>
      <trkpt lat="35.400793" lon="136.9189" muitiRoute="1">
        <name>鵜沼羽場町六丁目</name>
      </trkpt>
      <trkpt lat="35.402525" lon="136.912026" muitiRoute="1">
        <name>鵜沼各務原町五丁目</name>
      </trkpt>
      <trkpt lat="35.407384" lon="136.912772" muitiRoute="1">
        <name>各務おがせ町九丁目</name>
      </trkpt>
      <trkpt lat="35.396616" lon="136.916201" muitiRoute="1">
        <name>鵜沼羽場町七丁目</name>
      </trkpt>
      <trkpt lat="35.395886" lon="136.911805" muitiRoute="1">
        <name>鵜沼各務原町九丁目</name>
      </trkpt>
      <trkpt lat="35.391086" lon="136.912488" muitiRoute="1">
        <name>鵜沼大伊木町一丁目</name>
      </trkpt>
      <trkpt lat="35.391533" lon="136.917699" muitiRoute="1">
        <name>鵜沼丸子町一丁目</name>
      </trkpt>
      <trkpt lat="35.3880949" lon="136.9178425" muitiRoute="1">
        <name>鵜沼丸子町</name>
      </trkpt>
      <trkpt lat="35.388297" lon="136.916431" muitiRoute="1">
        <name>鵜沼丸子町三丁目</name>
      </trkpt>
      <trkpt lat="35.388246" lon="136.919598" muitiRoute="1">
        <name>鵜沼丸子町二丁目</name>
      </trkpt>
      <trkpt lat="35.382697" lon="136.912929" muitiRoute="1">
        <name>鵜沼大伊木町六丁目</name>
      </trkpt>
      <trkpt lat="35.3827691" lon="136.9120628" muitiRoute="1">
        <name>鵜沼大伊木町</name>
      </trkpt>
      <trkpt lat="35.384733" lon="136.910845" muitiRoute="1">
        <name>鵜沼大伊木町五丁目</name>
      </trkpt>
      <trkpt lat="35.390453" lon="136.924095" muitiRoute="1">
        <name>鵜沼小伊木町三丁目</name>
      </trkpt>
      <trkpt lat="35.39404" lon="136.9248" muitiRoute="1">
        <name>鵜沼真名越町三丁目</name>
      </trkpt>
      <trkpt lat="35.396935" lon="136.925622" muitiRoute="1">
        <name>鵜沼真名越町二丁目</name>
      </trkpt>
      <trkpt lat="35.399653" lon="136.926122" muitiRoute="1">
        <name>鵜沼真名越町一丁目</name>
      </trkpt>
      <trkpt lat="35.395452" lon="136.920793" muitiRoute="1">
        <name>鵜沼羽場町八丁目</name>
      </trkpt>
      <trkpt lat="35.387073" lon="136.929177" muitiRoute="1">
        <name>鵜沼小伊木町四丁目</name>
      </trkpt>
      <trkpt lat="35.38998" lon="136.933077" muitiRoute="1">
        <name>鵜沼小伊木町二丁目</name>
      </trkpt>
      <trkpt lat="35.392007" lon="136.933407" muitiRoute="1">
        <name>鵜沼古市場町三丁目</name>
      </trkpt>
      <trkpt lat="35.3936492" lon="136.9332424" muitiRoute="1">
        <name>鵜沼古市場町</name>
      </trkpt>
      <trkpt lat="35.395433" lon="136.934863" muitiRoute="1">
        <name>鵜沼古市場町二丁目</name>
      </trkpt>
      <trkpt lat="35.393283" lon="136.936442" muitiRoute="1">
        <name>鵜沼古市場町四丁目</name>
      </trkpt>
      <trkpt lat="35.392337" lon="136.939773" muitiRoute="1">
        <name>鵜沼南町四丁目</name>
      </trkpt>
      <trkpt lat="35.395357" lon="136.939543" muitiRoute="1">
        <name>鵜沼南町三丁目</name>
      </trkpt>
      <trkpt lat="35.397772" lon="136.93826" muitiRoute="1">
        <name>鵜沼南町一丁目</name>
      </trkpt>
      <trkpt lat="35.3988" lon="136.932978" muitiRoute="1">
        <name>鵜沼西町四丁目</name>
      </trkpt>
      <trkpt lat="35.395509" lon="136.930729" muitiRoute="1">
        <name>鵜沼古市場町一丁目</name>
      </trkpt>
      <trkpt lat="35.391922" lon="136.930126" muitiRoute="1">
        <name>鵜沼小伊木町一丁目</name>
      </trkpt>
      <trkpt lat="35.3903624" lon="136.9300399" muitiRoute="1">
        <name>鵜沼小伊木町</name>
      </trkpt>
      <trkpt lat="35.397426" lon="136.940676" muitiRoute="1">
        <name>鵜沼南町二丁目</name>
      </trkpt>
      <trkpt lat="35.399372" lon="136.941019" muitiRoute="1">
        <name>鵜沼山崎町一丁目</name>
      </trkpt>
      <trkpt lat="35.398976" lon="136.942899" muitiRoute="1">
        <name>鵜沼山崎町二丁目</name>
      </trkpt>
      <trkpt lat="35.398806" lon="136.944928" muitiRoute="1">
        <name>鵜沼山崎町三丁目</name>
      </trkpt>
      <trkpt lat="35.398279" lon="136.947241" muitiRoute="1">
        <name>鵜沼山崎町四丁目</name>
      </trkpt>
      <trkpt lat="35.398531" lon="136.948816" muitiRoute="1">
        <name>鵜沼山崎町五丁目</name>
      </trkpt>
      <trkpt lat="35.396438" lon="136.94782" muitiRoute="1">
        <name>鵜沼山崎町九丁目</name>
      </trkpt>
      <trkpt lat="35.395416" lon="136.945462" muitiRoute="1">
        <name>鵜沼南町七丁目</name>
      </trkpt>
      <trkpt lat="35.396411" lon="136.943041" muitiRoute="1">
        <name>鵜沼南町五丁目</name>
      </trkpt>
      <trkpt lat="35.3949897" lon="136.9424647" muitiRoute="1">
        <name>鵜沼南町</name>
      </trkpt>
      <trkpt lat="35.393833" lon="136.943333" muitiRoute="1">
        <name>鵜沼南町六丁目</name>
      </trkpt>
      <trkpt lat="35.401057" lon="136.943672" muitiRoute="1">
        <name>鵜沼東町六丁目</name>
      </trkpt>
      <trkpt lat="35.402541" lon="136.944209" muitiRoute="1">
        <name>鵜沼東町三丁目</name>
      </trkpt>
      <trkpt lat="35.402924" lon="136.946139" muitiRoute="1">
        <name>鵜沼東町八丁目</name>
      </trkpt>
      <trkpt lat="35.404514" lon="136.945455" muitiRoute="1">
        <name>鵜沼台四丁目</name>
      </trkpt>
      <trkpt lat="35.4050089" lon="136.9461713" muitiRoute="1">
        <name>鵜沼台</name>
      </trkpt>
      <trkpt lat="35.405249" lon="136.947031" muitiRoute="1">
        <name>鵜沼台五丁目</name>
      </trkpt>
      <trkpt lat="35.405966" lon="136.945694" muitiRoute="1">
        <name>鵜沼台三丁目</name>
      </trkpt>
      <trkpt lat="35.406865" lon="136.94474" muitiRoute="1">
        <name>鵜沼台二丁目</name>
      </trkpt>
      <trkpt lat="35.40635" lon="136.9432" muitiRoute="1">
        <name>鵜沼台八丁目</name>
      </trkpt>
      <trkpt lat="35.40818" lon="136.943086" muitiRoute="1">
        <name>緑苑南三丁目</name>
      </trkpt>
      <trkpt lat="35.4087942" lon="136.9423437" muitiRoute="1">
        <name>緑苑南</name>
      </trkpt>
      <trkpt lat="35.408323" lon="136.941173" muitiRoute="1">
        <name>緑苑南二丁目</name>
      </trkpt>
      <trkpt lat="35.409588" lon="136.940056" muitiRoute="1">
        <name>緑苑南四丁目</name>
      </trkpt>
      <trkpt lat="35.409495" lon="136.944128" muitiRoute="1">
        <name>緑苑南一丁目</name>
      </trkpt>
      <trkpt lat="35.407678" lon="136.946837" muitiRoute="1">
        <name>鵜沼台一丁目</name>
      </trkpt>
      <trkpt lat="35.406696" lon="136.947909" muitiRoute="1">
        <name>鵜沼台六丁目</name>
      </trkpt>
      <trkpt lat="35.404132" lon="136.948088" muitiRoute="1">
        <name>鵜沼台七丁目</name>
      </trkpt>
      <trkpt lat="35.401389" lon="136.94762" muitiRoute="1">
        <name>鵜沼東町七丁目</name>
      </trkpt>
      <trkpt lat="35.400475" lon="136.948797" muitiRoute="1">
        <name>鵜沼山崎町六丁目</name>
      </trkpt>
      <trkpt lat="35.4014287" lon="136.9412677" muitiRoute="1">
        <name>鵜沼東町</name>
      </trkpt>
      <trkpt lat="35.40135" lon="136.941138" muitiRoute="1">
        <name>鵜沼東町五丁目</name>
      </trkpt>
      <trkpt lat="35.404697" lon="136.94195" muitiRoute="1">
        <name>鵜沼東町二丁目</name>
      </trkpt>
      <trkpt lat="35.41034" lon="136.946208" muitiRoute="1">
        <name>緑苑中三丁目</name>
      </trkpt>
      <trkpt lat="35.412246" lon="136.945754" muitiRoute="1">
        <name>緑苑中一丁目</name>
      </trkpt>
      <trkpt lat="35.4132891" lon="136.945664" muitiRoute="1">
        <name>緑苑中</name>
      </trkpt>
      <trkpt lat="35.414206" lon="136.945133" muitiRoute="1">
        <name>緑苑西二丁目</name>
      </trkpt>
      <trkpt lat="35.4145133" lon="136.9446323" muitiRoute="1">
        <name>緑苑西</name>
      </trkpt>
      <trkpt lat="35.414577" lon="136.94321" muitiRoute="1">
        <name>緑苑西一丁目</name>
      </trkpt>
      <trkpt lat="35.411933" lon="136.942529" muitiRoute="1">
        <name>緑苑西三丁目</name>
      </trkpt>
      <trkpt lat="35.411629" lon="136.944066" muitiRoute="1">
        <name>緑苑西四丁目</name>
      </trkpt>
      <trkpt lat="35.413059" lon="136.94799" muitiRoute="1">
        <name>緑苑中二丁目</name>
      </trkpt>
      <trkpt lat="35.412675" lon="136.94942" muitiRoute="1">
        <name>緑苑東三丁目</name>
      </trkpt>
      <trkpt lat="35.410753" lon="136.949321" muitiRoute="1">
        <name>緑苑東四丁目</name>
      </trkpt>
      <trkpt lat="35.415667" lon="136.948516" muitiRoute="1">
        <name>緑苑北二丁目</name>
      </trkpt>
      <trkpt lat="35.4172213" lon="136.9493814" muitiRoute="1">
        <name>緑苑北</name>
      </trkpt>
      <trkpt lat="35.417248" lon="136.949867" muitiRoute="1">
        <name>緑苑北三丁目</name>
      </trkpt>
      <trkpt lat="35.416745" lon="136.946533" muitiRoute="1">
        <name>緑苑北一丁目</name>
      </trkpt>
      <trkpt lat="35.414754" lon="136.951017" muitiRoute="1">
        <name>緑苑東一丁目</name>
      </trkpt>
      <trkpt lat="35.4147111" lon="136.9510049" muitiRoute="1">
        <name>緑苑東</name>
      </trkpt>
      <trkpt lat="35.412694" lon="136.951248" muitiRoute="1">
        <name>緑苑東二丁目</name>
      </trkpt>
      <trkpt lat="35.406987" lon="136.953648" muitiRoute="1">
        <name>新鵜沼台二丁目</name>
      </trkpt>
      <trkpt lat="35.405384" lon="136.954739" muitiRoute="1">
        <name>新鵜沼台六丁目</name>
      </trkpt>
      <trkpt lat="35.407209" lon="136.956161" muitiRoute="1">
        <name>新鵜沼台三丁目</name>
      </trkpt>
      <trkpt lat="35.406637" lon="136.959696" muitiRoute="1">
        <name>鵜沼宝積寺町五丁目</name>
      </trkpt>
      <trkpt lat="35.409158" lon="136.959802" muitiRoute="1">
        <name>鵜沼宝積寺町六丁目</name>
      </trkpt>
      <trkpt lat="35.404137" lon="136.959326" muitiRoute="1">
        <name>鵜沼宝積寺町四丁目</name>
      </trkpt>
      <trkpt lat="35.401203" lon="136.956231" muitiRoute="1">
        <name>鵜沼宝積寺町一丁目</name>
      </trkpt>
      <trkpt lat="35.403629" lon="136.953107" muitiRoute="1">
        <name>新鵜沼台八丁目</name>
      </trkpt>
      <trkpt lat="35.40491" lon="136.952093" muitiRoute="1">
        <name>新鵜沼台五丁目</name>
      </trkpt>
      <trkpt lat="35.405838" lon="136.950552" muitiRoute="1">
        <name>新鵜沼台一丁目</name>
      </trkpt>
      <trkpt lat="35.403211" lon="136.950216" muitiRoute="1">
        <name>新鵜沼台四丁目</name>
      </trkpt>
      <trkpt lat="35.402219" lon="136.951407" muitiRoute="1">
        <name>新鵜沼台七丁目</name>
      </trkpt>
      <trkpt lat="35.402173" lon="136.960425" muitiRoute="1">
        <name>鵜沼宝積寺町二丁目</name>
      </trkpt>
      <trkpt lat="35.406563" lon="136.961826" muitiRoute="1">
        <name>鵜沼宝積寺町三丁目</name>
      </trkpt>
      <trkpt lat="35.399724" lon="136.95871" muitiRoute="1">
        <name>桜木町五丁目</name>
      </trkpt>
      <trkpt lat="35.39955" lon="136.956561" muitiRoute="1">
        <name>桜木町四丁目</name>
      </trkpt>
      <trkpt lat="35.398579" lon="136.955096" muitiRoute="1">
        <name>桜木町二丁目</name>
      </trkpt>
      <trkpt lat="35.397736" lon="136.95684" muitiRoute="1">
        <name>桜木町三丁目</name>
      </trkpt>
      <trkpt lat="35.397011" lon="136.953741" muitiRoute="1">
        <name>桜木町一丁目</name>
      </trkpt>
      <trkpt lat="35.39639" lon="136.951068" muitiRoute="1">
        <name>鵜沼山崎町八丁目</name>
      </trkpt>
      <trkpt lat="35.399338" lon="136.950995" muitiRoute="1">
        <name>鵜沼山崎町七丁目</name>
      </trkpt>
      <trkpt lat="35.422189" lon="136.943092" muitiRoute="1">
        <name>鵜沼</name>
      </trkpt>
      <trkpt lat="35.366357" lon="136.804461" muitiRoute="1">
        <name>川島北山町</name>
      </trkpt>
      <trkpt lat="35.363391" lon="136.797891" muitiRoute="1">
        <name>川島渡町</name>
      </trkpt>
    </trkseg>
  </trk>
</gpx>