<?xml version="1.0" encoding="UTF-8"?>
<gpx version="1.1" creator="PowerShell ConvertTo-Gpx" xmlns="http://www.topografix.com/GPX/1/1">
  <metadata>
    <time>2025-11-07T00:22:38Z</time>
  </metadata>
  <trk>
    <name>
    </name>
    <trkseg>
      <trkpt lat="34.8283131" lon="138.7741855" muitiRoute="1">
        <name>安良里</name>
      </trkpt>
      <trkpt lat="34.8462247" lon="138.7829881" muitiRoute="1">
        <name>宇久須</name>
      </trkpt>
      <trkpt lat="34.8283131" lon="138.7741855" muitiRoute="1">
        <name>安良里</name>
      </trkpt>
      <trkpt lat="34.802931" lon="138.7687614" muitiRoute="1">
        <name>田子</name>
      </trkpt>
      <trkpt lat="34.8052458" lon="138.7548502" muitiRoute="1">
        <name>尊之島</name>
      </trkpt>
      <trkpt lat="34.7841162" lon="138.7684522" muitiRoute="1">
        <name>堂ヶ島</name>
      </trkpt>
      <trkpt lat="34.7775478" lon="138.7717876" muitiRoute="1">
        <name>沢田</name>
      </trkpt>
      <trkpt lat="34.7753066" lon="138.774006" muitiRoute="1">
        <name>仁科</name>
      </trkpt>
      <trkpt lat="34.777441" lon="138.7872301" muitiRoute="1">
        <name>中</name>
      </trkpt>
      <trkpt lat="34.7861535" lon="138.802722" muitiRoute="1">
        <name>一色</name>
      </trkpt>
      <trkpt lat="34.8225001" lon="138.8417733" muitiRoute="1">
        <name>大沢里</name>
      </trkpt>
    </trkseg>
  </trk>
</gpx>