<gpx version="1.1" creator="PowerShell-Nominatim">
  <trk>
    <trkseg>
      <trkpt lat="35.335772" lon="136.742176">
        <name>正木町上大浦六丁目</name>
        <desc>正木町上大浦六丁目, 羽島市, 岐阜県, 501-6062, 日本</desc>
        <extensions>
          <neighbourhood>正木町上大浦六丁目</neighbourhood>
          <city>羽島市</city>
          <province>岐阜県</province>
          <ISO3166-2-lvl4>JP-21</ISO3166-2-lvl4>
          <postcode>501-6062</postcode>
          <country>日本</country>
          <country_code>jp</country_code>
        </extensions>
      </trkpt>
      <trkpt lat="35.337345" lon="136.74309">
        <name>正木町上大浦五丁目</name>
        <desc>正木町上大浦五丁目, 羽島市, 岐阜県, 501-6062, 日本</desc>
        <extensions>
          <neighbourhood>正木町上大浦五丁目</neighbourhood>
          <city>羽島市</city>
          <province>岐阜県</province>
          <ISO3166-2-lvl4>JP-21</ISO3166-2-lvl4>
          <postcode>501-6062</postcode>
          <country>日本</country>
          <country_code>jp</country_code>
        </extensions>
      </trkpt>
      <trkpt lat="35.338459" lon="136.743577">
        <name>正木町上大浦四丁目</name>
        <desc>正木町上大浦四丁目, 羽島市, 岐阜県, 501-6062, 日本</desc>
        <extensions>
          <neighbourhood>正木町上大浦四丁目</neighbourhood>
          <city>羽島市</city>
          <province>岐阜県</province>
          <ISO3166-2-lvl4>JP-21</ISO3166-2-lvl4>
          <postcode>501-6062</postcode>
          <country>日本</country>
          <country_code>jp</country_code>
        </extensions>
      </trkpt>
      <trkpt lat="35.339539" lon="136.743563">
        <name>正木町南及九丁目</name>
        <desc>正木町南及九丁目, 羽島市, 岐阜県, 501-6062, 日本</desc>
        <extensions>
          <neighbourhood>正木町南及九丁目</neighbourhood>
          <city>羽島市</city>
          <province>岐阜県</province>
          <ISO3166-2-lvl4>JP-21</ISO3166-2-lvl4>
          <postcode>501-6062</postcode>
          <country>日本</country>
          <country_code>jp</country_code>
        </extensions>
      </trkpt>
      <trkpt lat="35.341182" lon="136.744929">
        <name>正木町南及七丁目</name>
        <desc>正木町南及七丁目, 羽島市, 岐阜県, 501-6062, 日本</desc>
        <extensions>
          <neighbourhood>正木町南及七丁目</neighbourhood>
          <city>羽島市</city>
          <province>岐阜県</province>
          <ISO3166-2-lvl4>JP-21</ISO3166-2-lvl4>
          <postcode>501-6062</postcode>
          <country>日本</country>
          <country_code>jp</country_code>
        </extensions>
      </trkpt>
      <trkpt lat="35.342834" lon="136.744467">
        <name>正木町南及二丁目</name>
        <desc>正木町南及二丁目, 羽島市, 岐阜県, 501-6062, 日本</desc>
        <extensions>
          <neighbourhood>正木町南及二丁目</neighbourhood>
          <city>羽島市</city>
          <province>岐阜県</province>
          <ISO3166-2-lvl4>JP-21</ISO3166-2-lvl4>
          <postcode>501-6062</postcode>
          <country>日本</country>
          <country_code>jp</country_code>
        </extensions>
      </trkpt>
      <trkpt lat="35.343507" lon="136.742743">
        <name>正木町南及三丁目</name>
        <desc>正木町南及三丁目, 羽島市, 岐阜県, 501-6062, 日本</desc>
        <extensions>
          <neighbourhood>正木町南及三丁目</neighbourhood>
          <city>羽島市</city>
          <province>岐阜県</province>
          <ISO3166-2-lvl4>JP-21</ISO3166-2-lvl4>
          <postcode>501-6062</postcode>
          <country>日本</country>
          <country_code>jp</country_code>
        </extensions>
      </trkpt>
      <trkpt lat="35.3416" lon="136.742111">
        <name>正木町南及四丁目</name>
        <desc>正木町南及四丁目, 羽島市, 岐阜県, 501-6062, 日本</desc>
        <extensions>
          <neighbourhood>正木町南及四丁目</neighbourhood>
          <city>羽島市</city>
          <province>岐阜県</province>
          <ISO3166-2-lvl4>JP-21</ISO3166-2-lvl4>
          <postcode>501-6062</postcode>
          <country>日本</country>
          <country_code>jp</country_code>
        </extensions>
      </trkpt>
      <trkpt lat="35.340605" lon="136.740403">
        <name>正木町上大浦二丁目</name>
        <desc>正木町上大浦二丁目, 羽島市, 岐阜県, 501-6062, 日本</desc>
        <extensions>
          <neighbourhood>正木町上大浦二丁目</neighbourhood>
          <city>羽島市</city>
          <province>岐阜県</province>
          <ISO3166-2-lvl4>JP-21</ISO3166-2-lvl4>
          <postcode>501-6062</postcode>
          <country>日本</country>
          <country_code>jp</country_code>
        </extensions>
      </trkpt>
      <trkpt lat="35.341987" lon="136.739284">
        <name>正木町上大浦一丁目</name>
        <desc>正木町上大浦一丁目, 羽島市, 岐阜県, 501-6062, 日本</desc>
        <extensions>
          <neighbourhood>正木町上大浦一丁目</neighbourhood>
          <city>羽島市</city>
          <province>岐阜県</province>
          <ISO3166-2-lvl4>JP-21</ISO3166-2-lvl4>
          <postcode>501-6062</postcode>
          <country>日本</country>
          <country_code>jp</country_code>
        </extensions>
      </trkpt>
      <trkpt lat="35.339696" lon="136.738568">
        <name>正木町上大浦三丁目</name>
        <desc>正木町上大浦三丁目, 羽島市, 岐阜県, 501-6062, 日本</desc>
        <extensions>
          <neighbourhood>正木町上大浦三丁目</neighbourhood>
          <city>羽島市</city>
          <province>岐阜県</province>
          <ISO3166-2-lvl4>JP-21</ISO3166-2-lvl4>
          <postcode>501-6062</postcode>
          <country>日本</country>
          <country_code>jp</country_code>
        </extensions>
      </trkpt>
      <trkpt lat="35.33875" lon="136.738067">
        <name>正木町森五丁目</name>
        <desc>正木町森五丁目, 羽島市, 岐阜県, 501-6062, 日本</desc>
        <extensions>
          <neighbourhood>正木町森五丁目</neighbourhood>
          <city>羽島市</city>
          <province>岐阜県</province>
          <ISO3166-2-lvl4>JP-21</ISO3166-2-lvl4>
          <postcode>501-6062</postcode>
          <country>日本</country>
          <country_code>jp</country_code>
        </extensions>
      </trkpt>
      <trkpt lat="35.337557" lon="136.738085">
        <name>正木町森七丁目</name>
        <desc>正木町森七丁目, 羽島市, 岐阜県, 501-6062, 日本</desc>
        <extensions>
          <neighbourhood>正木町森七丁目</neighbourhood>
          <city>羽島市</city>
          <province>岐阜県</province>
          <ISO3166-2-lvl4>JP-21</ISO3166-2-lvl4>
          <postcode>501-6062</postcode>
          <country>日本</country>
          <country_code>jp</country_code>
        </extensions>
      </trkpt>
      <trkpt lat="35.336434" lon="136.737725">
        <name>正木町森十一丁目</name>
        <desc>正木町森新田一丁目, 羽島市, 岐阜県, 501-6062, 日本</desc>
        <extensions>
          <neighbourhood>正木町森新田一丁目</neighbourhood>
          <city>羽島市</city>
          <province>岐阜県</province>
          <ISO3166-2-lvl4>JP-21</ISO3166-2-lvl4>
          <postcode>501-6062</postcode>
          <country>日本</country>
          <country_code>jp</country_code>
        </extensions>
      </trkpt>
      <trkpt lat="35.335527" lon="136.737179">
        <name>正木町森十二丁目</name>
        <desc>正木町森新田二丁目, 羽島市, 岐阜県, 501-6062, 日本</desc>
        <extensions>
          <neighbourhood>正木町森新田二丁目</neighbourhood>
          <city>羽島市</city>
          <province>岐阜県</province>
          <ISO3166-2-lvl4>JP-21</ISO3166-2-lvl4>
          <postcode>501-6062</postcode>
          <country>日本</country>
          <country_code>jp</country_code>
        </extensions>
      </trkpt>
      <trkpt lat="35.336181" lon="136.734273">
        <name>正木町森十三丁目</name>
        <desc>正木町森十三丁目, 羽島市, 岐阜県, 501-6062, 日本</desc>
        <extensions>
          <neighbourhood>正木町森十三丁目</neighbourhood>
          <city>羽島市</city>
          <province>岐阜県</province>
          <ISO3166-2-lvl4>JP-21</ISO3166-2-lvl4>
          <postcode>501-6062</postcode>
          <country>日本</country>
          <country_code>jp</country_code>
        </extensions>
      </trkpt>
      <trkpt lat="35.335268" lon="136.733911">
        <name>正木町森十四丁目</name>
        <desc>正木町森十四丁目, 羽島市, 岐阜県, 501-6295, 日本</desc>
        <extensions>
          <neighbourhood>正木町森十四丁目</neighbourhood>
          <city>羽島市</city>
          <province>岐阜県</province>
          <ISO3166-2-lvl4>JP-21</ISO3166-2-lvl4>
          <postcode>501-6295</postcode>
          <country>日本</country>
          <country_code>jp</country_code>
        </extensions>
      </trkpt>
      <trkpt lat="35.335112" lon="136.732109">
        <name>正木町坂丸一丁目</name>
        <desc>正木町坂丸一丁目, 羽島市, 岐阜県, 501-6295, 日本</desc>
        <extensions>
          <neighbourhood>正木町坂丸一丁目</neighbourhood>
          <city>羽島市</city>
          <province>岐阜県</province>
          <ISO3166-2-lvl4>JP-21</ISO3166-2-lvl4>
          <postcode>501-6295</postcode>
          <country>日本</country>
          <country_code>jp</country_code>
        </extensions>
      </trkpt>
      <trkpt lat="35.337473" lon="136.734708">
        <name>正木町森十丁目</name>
        <desc>正木町森十丁目, 羽島市, 岐阜県, 501-6062, 日本</desc>
        <extensions>
          <neighbourhood>正木町森十丁目</neighbourhood>
          <city>羽島市</city>
          <province>岐阜県</province>
          <ISO3166-2-lvl4>JP-21</ISO3166-2-lvl4>
          <postcode>501-6062</postcode>
          <country>日本</country>
          <country_code>jp</country_code>
        </extensions>
      </trkpt>
      <trkpt lat="35.338566" lon="136.735445">
        <name>正木町森八丁目</name>
        <desc>正木町森八丁目, 羽島市, 岐阜県, 501-6062, 日本</desc>
        <extensions>
          <neighbourhood>正木町森八丁目</neighbourhood>
          <city>羽島市</city>
          <province>岐阜県</province>
          <ISO3166-2-lvl4>JP-21</ISO3166-2-lvl4>
          <postcode>501-6062</postcode>
          <country>日本</country>
          <country_code>jp</country_code>
        </extensions>
      </trkpt>
      <trkpt lat="35.339773" lon="136.734895">
        <name>正木町森三丁目</name>
        <desc>正木町森三丁目, 羽島市, 岐阜県, 501-6062, 日本</desc>
        <extensions>
          <neighbourhood>正木町森三丁目</neighbourhood>
          <city>羽島市</city>
          <province>岐阜県</province>
          <ISO3166-2-lvl4>JP-21</ISO3166-2-lvl4>
          <postcode>501-6062</postcode>
          <country>日本</country>
          <country_code>jp</country_code>
        </extensions>
      </trkpt>
      <trkpt lat="35.340722" lon="136.734856">
        <name>正木町森二丁目</name>
        <desc>正木町森二丁目, 羽島市, 岐阜県, 501-6062, 日本</desc>
        <extensions>
          <neighbourhood>正木町森二丁目</neighbourhood>
          <city>羽島市</city>
          <province>岐阜県</province>
          <ISO3166-2-lvl4>JP-21</ISO3166-2-lvl4>
          <postcode>501-6062</postcode>
          <country>日本</country>
          <country_code>jp</country_code>
        </extensions>
      </trkpt>
      <trkpt lat="35.341361" lon="136.735812">
        <name>正木町森一丁目</name>
        <desc>正木町森一丁目, 羽島市, 岐阜県, 501-6062, 日本</desc>
        <extensions>
          <neighbourhood>正木町森一丁目</neighbourhood>
          <city>羽島市</city>
          <province>岐阜県</province>
          <ISO3166-2-lvl4>JP-21</ISO3166-2-lvl4>
          <postcode>501-6062</postcode>
          <country>日本</country>
          <country_code>jp</country_code>
        </extensions>
      </trkpt>
      <trkpt lat="35.339885" lon="136.73656">
        <name>正木町森四丁目</name>
        <desc>正木町森四丁目, 羽島市, 岐阜県, 501-6062, 日本</desc>
        <extensions>
          <neighbourhood>正木町森四丁目</neighbourhood>
          <city>羽島市</city>
          <province>岐阜県</province>
          <ISO3166-2-lvl4>JP-21</ISO3166-2-lvl4>
          <postcode>501-6062</postcode>
          <country>日本</country>
          <country_code>jp</country_code>
        </extensions>
      </trkpt>
      <trkpt lat="35.338202" lon="136.73998">
        <name>正木町森六丁目</name>
        <desc>正木町森六丁目, 羽島市, 岐阜県, 501-6062, 日本</desc>
        <extensions>
          <neighbourhood>正木町森六丁目</neighbourhood>
          <city>羽島市</city>
          <province>岐阜県</province>
          <ISO3166-2-lvl4>JP-21</ISO3166-2-lvl4>
          <postcode>501-6062</postcode>
          <country>日本</country>
          <country_code>jp</country_code>
        </extensions>
      </trkpt>
      <trkpt lat="35.335491" lon="136.745612">
        <name>正木町光法寺一丁目</name>
        <desc>下中笠松線, 柳原町, 羽島市, 羽島郡, 岐阜県, 501-6062, 日本</desc>
        <extensions>
          <road>下中笠松線</road>
          <quarter>柳原町</quarter>
          <city>羽島市</city>
          <county>羽島郡</county>
          <province>岐阜県</province>
          <ISO3166-2-lvl4>JP-21</ISO3166-2-lvl4>
          <postcode>501-6062</postcode>
          <country>日本</country>
          <country_code>jp</country_code>
        </extensions>
      </trkpt>
      <trkpt lat="35.33939" lon="136.746878">
        <name>正木町南及八丁目</name>
        <desc>下中笠松線, 柳原町, 羽島市, 羽島郡, 岐阜県, 501-6062, 日本</desc>
        <extensions>
          <road>下中笠松線</road>
          <quarter>柳原町</quarter>
          <city>羽島市</city>
          <county>羽島郡</county>
          <province>岐阜県</province>
          <ISO3166-2-lvl4>JP-21</ISO3166-2-lvl4>
          <postcode>501-6062</postcode>
          <country>日本</country>
          <country_code>jp</country_code>
        </extensions>
      </trkpt>
      <trkpt lat="35.342069" lon="136.747895">
        <name>正木町南及六丁目</name>
        <desc>下中笠松線, 柳原町, 羽島市, 羽島郡, 岐阜県, 501-6062, 日本</desc>
        <extensions>
          <road>下中笠松線</road>
          <quarter>柳原町</quarter>
          <city>羽島市</city>
          <county>羽島郡</county>
          <province>岐阜県</province>
          <ISO3166-2-lvl4>JP-21</ISO3166-2-lvl4>
          <postcode>501-6062</postcode>
          <country>日本</country>
          <country_code>jp</country_code>
        </extensions>
      </trkpt>
      <trkpt lat="35.344761" lon="136.749192">
        <name>正木町南及五丁目</name>
        <desc>下中笠松線, 柳原町, 羽島市, 羽島郡, 岐阜県, 501-6062, 日本</desc>
        <extensions>
          <road>下中笠松線</road>
          <quarter>柳原町</quarter>
          <city>羽島市</city>
          <county>羽島郡</county>
          <province>岐阜県</province>
          <ISO3166-2-lvl4>JP-21</ISO3166-2-lvl4>
          <postcode>501-6062</postcode>
          <country>日本</country>
          <country_code>jp</country_code>
        </extensions>
      </trkpt>
      <trkpt lat="35.344748" lon="136.745615">
        <name>正木町南及一丁目</name>
        <desc>正木町南及一丁目, 羽島市, 岐阜県, 501-6062, 日本</desc>
        <extensions>
          <neighbourhood>正木町南及一丁目</neighbourhood>
          <city>羽島市</city>
          <province>岐阜県</province>
          <ISO3166-2-lvl4>JP-21</ISO3166-2-lvl4>
          <postcode>501-6062</postcode>
          <country>日本</country>
          <country_code>jp</country_code>
        </extensions>
      </trkpt>
      <trkpt lat="35.351158" lon="136.733406">
        <name>足近町北宿三丁目</name>
        <desc>門間, 笠松町, 羽島郡, 岐阜県, 500-8285, 日本</desc>
        <extensions>
          <quarter>門間</quarter>
          <town>笠松町</town>
          <county>羽島郡</county>
          <province>岐阜県</province>
          <ISO3166-2-lvl4>JP-21</ISO3166-2-lvl4>
          <postcode>500-8285</postcode>
          <country>日本</country>
          <country_code>jp</country_code>
        </extensions>
      </trkpt>
      <trkpt lat="35.353442" lon="136.733065">
        <name>足近町北宿二丁目</name>
        <desc>足近町北宿二丁目, 羽島市, 岐阜県, 500-8285, 日本</desc>
        <extensions>
          <neighbourhood>足近町北宿二丁目</neighbourhood>
          <city>羽島市</city>
          <province>岐阜県</province>
          <ISO3166-2-lvl4>JP-21</ISO3166-2-lvl4>
          <postcode>500-8285</postcode>
          <country>日本</country>
          <country_code>jp</country_code>
        </extensions>
      </trkpt>
      <trkpt lat="35.355134" lon="136.731735">
        <name>足近町北宿一丁目</name>
        <desc>門間, 羽島市, 羽島郡, 岐阜県, 500-8285, 日本</desc>
        <extensions>
          <quarter>門間</quarter>
          <city>羽島市</city>
          <county>羽島郡</county>
          <province>岐阜県</province>
          <ISO3166-2-lvl4>JP-21</ISO3166-2-lvl4>
          <postcode>500-8285</postcode>
          <country>日本</country>
          <country_code>jp</country_code>
        </extensions>
      </trkpt>
      <trkpt lat="35.352431" lon="136.727176">
        <name>足近町一丁目</name>
        <desc>足近町一丁目, 羽島市, 岐阜県, 501-6123, 日本</desc>
        <extensions>
          <neighbourhood>足近町一丁目</neighbourhood>
          <city>羽島市</city>
          <province>岐阜県</province>
          <ISO3166-2-lvl4>JP-21</ISO3166-2-lvl4>
          <postcode>501-6123</postcode>
          <country>日本</country>
          <country_code>jp</country_code>
        </extensions>
      </trkpt>
      <trkpt lat="35.348724" lon="136.72701">
        <name>足近町六丁目</name>
        <desc>足近町六丁目, 羽島市, 岐阜県, 501-6123, 日本</desc>
        <extensions>
          <neighbourhood>足近町六丁目</neighbourhood>
          <city>羽島市</city>
          <province>岐阜県</province>
          <ISO3166-2-lvl4>JP-21</ISO3166-2-lvl4>
          <postcode>501-6123</postcode>
          <country>日本</country>
          <country_code>jp</country_code>
        </extensions>
      </trkpt>
      <trkpt lat="35.338663" lon="136.732658">
        <name>正木町森九丁目</name>
        <desc>正木町森九丁目, 羽島市, 岐阜県, 501-6062, 日本</desc>
        <extensions>
          <neighbourhood>正木町森九丁目</neighbourhood>
          <city>羽島市</city>
          <province>岐阜県</province>
          <ISO3166-2-lvl4>JP-21</ISO3166-2-lvl4>
          <postcode>501-6062</postcode>
          <country>日本</country>
          <country_code>jp</country_code>
        </extensions>
      </trkpt>
    </trkseg>
    <extensions>
      <stats>
        <totalDistanceKm>10.26</totalDistanceKm>
        <pointCount>36</pointCount>
      </stats>
    </extensions>
    <name>Segment 5</name>
  </trk>
</gpx>