<?xml version="1.0" encoding="UTF-8"?>
<gpx version="1.1" creator="PowerShell ConvertTo-Gpx" xmlns="http://www.topografix.com/GPX/1/1">
  <metadata>
    <time>2025-11-16T09:33:11Z</time>
  </metadata>
  <trk>
    <name>
    </name>
    <trkseg>
      <trkpt lat="35.9494712" lon="136.3576054" muitiRoute="1">
        <name>横越町</name>
      </trkpt>
      <trkpt lat="35.9494712" lon="136.3576054" muitiRoute="1">
        <name>横越町</name>
      </trkpt>
      <trkpt lat="35.9473433" lon="136.351093" muitiRoute="1">
        <name>折立町</name>
      </trkpt>
      <trkpt lat="35.9609785" lon="136.3465977" muitiRoute="1">
        <name>赤谷町</name>
      </trkpt>
      <trkpt lat="35.9628629" lon="136.3677227" muitiRoute="1">
        <name>西河原町</name>
      </trkpt>
      <trkpt lat="35.9574266" lon="136.3683343" muitiRoute="1">
        <name>東河原町</name>
      </trkpt>
      <trkpt lat="35.9633058" lon="136.3950491" muitiRoute="1">
        <name>西市布町</name>
      </trkpt>
      <trkpt lat="35.9635055" lon="136.403203" muitiRoute="1">
        <name>小当見町</name>
      </trkpt>
      <trkpt lat="35.9606746" lon="136.4163458" muitiRoute="1">
        <name>中手町</name>
      </trkpt>
      <trkpt lat="35.9663625" lon="136.4246392" muitiRoute="1">
        <name>南野津又町</name>
      </trkpt>
      <trkpt lat="35.9549949" lon="136.4317095" muitiRoute="1">
        <name>神当部町</name>
      </trkpt>
      <trkpt lat="35.948429" lon="136.4405823" muitiRoute="1">
        <name>味見河内町</name>
      </trkpt>
      <trkpt lat="35.982243" lon="136.430819" muitiRoute="1">
        <name>南西俣町</name>
      </trkpt>
      <trkpt lat="35.986306" lon="136.4359259" muitiRoute="1">
        <name>東俣町</name>
      </trkpt>
      <trkpt lat="35.9995612" lon="136.4338016" muitiRoute="1">
        <name>計石町</name>
      </trkpt>
      <trkpt lat="35.9942229" lon="136.4156806" muitiRoute="1">
        <name>南宮地町</name>
      </trkpt>
      <trkpt lat="35.9931205" lon="136.444906" muitiRoute="1">
        <name>東川上町</name>
      </trkpt>
      <trkpt lat="36.0047256" lon="136.4316559" muitiRoute="1">
        <name>野波町</name>
      </trkpt>
      <trkpt lat="36.0015402" lon="136.4140069" muitiRoute="1">
        <name>大宮町</name>
      </trkpt>
      <trkpt lat="36.0291627" lon="136.4215493" muitiRoute="1">
        <name>所谷町</name>
      </trkpt>
      <trkpt lat="36.0291019" lon="136.4285016" muitiRoute="1">
        <name>皿谷町</name>
      </trkpt>
      <trkpt lat="36.0287028" lon="136.4045334" muitiRoute="1">
        <name>西中町</name>
      </trkpt>
      <trkpt lat="36.0290933" lon="136.3966584" muitiRoute="1">
        <name>美山大谷町</name>
      </trkpt>
      <trkpt lat="36.0279566" lon="136.3898349" muitiRoute="1">
        <name>篭谷町</name>
      </trkpt>
      <trkpt lat="36.021579" lon="136.3778829" muitiRoute="1">
        <name>吉山町</name>
      </trkpt>
      <trkpt lat="36.0081885" lon="136.3852966" muitiRoute="1">
        <name>薬師町</name>
      </trkpt>
      <trkpt lat="36.0127535" lon="136.4003169" muitiRoute="1">
        <name>仁位町</name>
      </trkpt>
      <trkpt lat="36.0036667" lon="136.4060783" muitiRoute="1">
        <name>縫原町</name>
      </trkpt>
      <trkpt lat="35.9880422" lon="136.3919699" muitiRoute="1">
        <name>間戸町</name>
      </trkpt>
      <trkpt lat="35.9922872" lon="136.3745355" muitiRoute="1">
        <name>椙谷町</name>
      </trkpt>
      <trkpt lat="35.99036" lon="136.3682914" muitiRoute="1">
        <name>小宇坂町</name>
      </trkpt>
      <trkpt lat="35.9913844" lon="136.3611889" muitiRoute="1">
        <name>小宇坂島町</name>
      </trkpt>
      <trkpt lat="35.9881638" lon="136.3571119" muitiRoute="1">
        <name>蔵作町</name>
      </trkpt>
      <trkpt lat="35.9980422" lon="136.356318" muitiRoute="1">
        <name>朝谷町</name>
      </trkpt>
      <trkpt lat="35.9999692" lon="136.3636565" muitiRoute="1">
        <name>美山町</name>
      </trkpt>
      <trkpt lat="36.0010021" lon="136.3729262" muitiRoute="1">
        <name>境寺町</name>
      </trkpt>
      <trkpt lat="35.9772421" lon="136.375426" muitiRoute="1">
        <name>東天田町</name>
      </trkpt>
      <trkpt lat="35.9771727" lon="136.3707912" muitiRoute="1">
        <name>西天田町</name>
      </trkpt>
      <trkpt lat="36.0046561" lon="136.3612318" muitiRoute="1">
        <name>品ケ瀬町</name>
      </trkpt>
      <trkpt lat="36.0158169" lon="136.3517475" muitiRoute="1">
        <name>小和清水町</name>
      </trkpt>
      <trkpt lat="36.0192707" lon="136.3546657" muitiRoute="1">
        <name>獺ケ口町</name>
      </trkpt>
      <trkpt lat="36.017648" lon="136.3394523" muitiRoute="1">
        <name>大久保町</name>
      </trkpt>
      <trkpt lat="36.0239912" lon="136.3361692" muitiRoute="1">
        <name>福島町</name>
      </trkpt>
      <trkpt lat="36.0199996" lon="136.3280797" muitiRoute="1">
        <name>市波町</name>
      </trkpt>
      <trkpt lat="36.0208327" lon="136.320076" muitiRoute="1">
        <name>田尻町</name>
      </trkpt>
      <trkpt lat="36.0252755" lon="136.3209236" muitiRoute="1">
        <name>高田町</name>
      </trkpt>
      <trkpt lat="36.012849" lon="136.334281" muitiRoute="1">
        <name>奈良瀬町</name>
      </trkpt>
      <trkpt lat="36.003632" lon="136.3265884" muitiRoute="1">
        <name>宇坂別所町</name>
      </trkpt>
      <trkpt lat="36.0059493" lon="136.3170719" muitiRoute="1">
        <name>三万谷町</name>
      </trkpt>
      <trkpt lat="36.0385502" lon="136.3309228" muitiRoute="1">
        <name>宇坂大谷町</name>
      </trkpt>
      <trkpt lat="36.0267071" lon="136.2984359" muitiRoute="1">
        <name>高尾町</name>
      </trkpt>
      <trkpt lat="36.0279826" lon="136.2933183" muitiRoute="1">
        <name>篠尾町</name>
      </trkpt>
      <trkpt lat="36.0199736" lon="136.2998736" muitiRoute="1">
        <name>前波町</name>
      </trkpt>
      <trkpt lat="36.0175786" lon="136.2964404" muitiRoute="1">
        <name>安波賀中島町</name>
      </trkpt>
      <trkpt lat="36.0122935" lon="136.2993371" muitiRoute="1">
        <name>安波賀町</name>
      </trkpt>
      <trkpt lat="36.0139772" lon="136.3045192" muitiRoute="1">
        <name>宿布町</name>
      </trkpt>
      <trkpt lat="36.0026946" lon="136.2988972" muitiRoute="1">
        <name>城戸ノ内町</name>
      </trkpt>
      <trkpt lat="36.0106012" lon="136.2835872" muitiRoute="1">
        <name>南山町</name>
      </trkpt>
      <trkpt lat="36.0176067" lon="136.278078" muitiRoute="1">
        <name>東郷美里町</name>
      </trkpt>
      <trkpt lat="36.0197393" lon="136.2778151" muitiRoute="1">
        <name>上毘沙門町</name>
      </trkpt>
      <trkpt lat="36.0173356" lon="136.2900031" muitiRoute="1">
        <name>脇三ケ町</name>
      </trkpt>
      <trkpt lat="36.0325551" lon="136.277504" muitiRoute="1">
        <name>成願寺町</name>
      </trkpt>
      <trkpt lat="36.040346" lon="136.2778795" muitiRoute="1">
        <name>次郎丸町</name>
      </trkpt>
      <trkpt lat="36.0424281" lon="136.2787914" muitiRoute="1">
        <name>大畑町</name>
      </trkpt>
      <trkpt lat="36.0426016" lon="136.2837374" muitiRoute="1">
        <name>宮地町</name>
      </trkpt>
      <trkpt lat="36.0446749" lon="136.2878144" muitiRoute="1">
        <name>花野谷町</name>
      </trkpt>
      <trkpt lat="36.052586" lon="136.2770426" muitiRoute="1">
        <name>河水町</name>
      </trkpt>
      <trkpt lat="36.0451173" lon="136.2662923" muitiRoute="1">
        <name>荒木別所町</name>
      </trkpt>
      <trkpt lat="36.0405108" lon="136.2669253" muitiRoute="1">
        <name>荒木町</name>
      </trkpt>
      <trkpt lat="36.0382379" lon="136.2631917" muitiRoute="1">
        <name>合島町</name>
      </trkpt>
      <trkpt lat="36.0349497" lon="136.2708413" muitiRoute="1">
        <name>荒木新保町</name>
      </trkpt>
      <trkpt lat="36.0373616" lon="136.2749612" muitiRoute="1">
        <name>岡西谷町</name>
      </trkpt>
      <trkpt lat="36.046167" lon="136.2597906" muitiRoute="1">
        <name>曽万布町</name>
      </trkpt>
      <trkpt lat="36.0457376" lon="136.2515241" muitiRoute="1">
        <name>和田中三丁目</name>
      </trkpt>
      <trkpt lat="36.0468609" lon="136.2481338" muitiRoute="1">
        <name>和田中二丁目</name>
      </trkpt>
      <trkpt lat="36.0493418" lon="136.2495875" muitiRoute="1">
        <name>和田東二丁目</name>
      </trkpt>
      <trkpt lat="36.0497539" lon="136.2457707" muitiRoute="1">
        <name>和田三丁目</name>
      </trkpt>
      <trkpt lat="36.0532452" lon="136.247246" muitiRoute="1">
        <name>和田東一丁目</name>
      </trkpt>
      <trkpt lat="36.0526164" lon="136.2520015" muitiRoute="1">
        <name>問屋町三丁目</name>
      </trkpt>
      <trkpt lat="36.0526337" lon="136.2560356" muitiRoute="1">
        <name>問屋町四丁目</name>
      </trkpt>
      <trkpt lat="36.0552142" lon="136.2560409" muitiRoute="1">
        <name>問屋町二丁目</name>
      </trkpt>
      <trkpt lat="36.0416039" lon="136.2484074" muitiRoute="1">
        <name>和田中町</name>
      </trkpt>
      <trkpt lat="36.0372141" lon="136.2532031" muitiRoute="1">
        <name>栂野町</name>
      </trkpt>
      <trkpt lat="36.030334" lon="136.2576556" muitiRoute="1">
        <name>稲津町</name>
      </trkpt>
      <trkpt lat="36.0460368" lon="136.2433326" muitiRoute="1">
        <name>和田中一丁目</name>
      </trkpt>
      <trkpt lat="36.0492681" lon="136.242705" muitiRoute="1">
        <name>和田二丁目</name>
      </trkpt>
      <trkpt lat="36.0506777" lon="136.2412727" muitiRoute="1">
        <name>和田一丁目</name>
      </trkpt>
      <trkpt lat="36.0505909" lon="136.2383062" muitiRoute="1">
        <name>西方二丁目</name>
      </trkpt>
      <trkpt lat="36.0518444" lon="136.2353611" muitiRoute="1">
        <name>西方一丁目</name>
      </trkpt>
      <trkpt lat="36.0532712" lon="136.2327218" muitiRoute="1">
        <name>勝見三丁目</name>
      </trkpt>
      <trkpt lat="36.0518444" lon="136.2295729" muitiRoute="1">
        <name>板垣町</name>
      </trkpt>
      <trkpt lat="36.0507297" lon="136.2289399" muitiRoute="1">
        <name>板垣一丁目</name>
      </trkpt>
      <trkpt lat="36.0529893" lon="136.2289909" muitiRoute="1">
        <name>西板垣町</name>
      </trkpt>
      <trkpt lat="36.0553616" lon="136.228677" muitiRoute="1">
        <name>勝見二丁目</name>
      </trkpt>
      <trkpt lat="36.0483681" lon="136.2296721" muitiRoute="1">
        <name>板垣二丁目</name>
      </trkpt>
      <trkpt lat="36.0456053" lon="136.2292913" muitiRoute="1">
        <name>板垣四丁目</name>
      </trkpt>
      <trkpt lat="36.0439245" lon="136.2297365" muitiRoute="1">
        <name>板垣五丁目</name>
      </trkpt>
      <trkpt lat="36.0462927" lon="136.2331402" muitiRoute="1">
        <name>板垣三丁目</name>
      </trkpt>
      <trkpt lat="36.0471472" lon="136.23667" muitiRoute="1">
        <name>馬垣町</name>
      </trkpt>
      <trkpt lat="36.0437597" lon="136.2393147" muitiRoute="1">
        <name>下馬一丁目</name>
      </trkpt>
      <trkpt lat="36.0551665" lon="136.2398082" muitiRoute="1">
        <name>御幸四丁目</name>
      </trkpt>
      <trkpt lat="36.0420724" lon="136.2373781" muitiRoute="1">
        <name>下馬二丁目</name>
      </trkpt>
      <trkpt lat="36.0401465" lon="136.2338269" muitiRoute="1">
        <name>下馬三丁目</name>
      </trkpt>
      <trkpt lat="36.042042" lon="136.2299216" muitiRoute="1">
        <name>羽水一丁目</name>
      </trkpt>
      <trkpt lat="36.039704" lon="136.2291813" muitiRoute="1">
        <name>羽水二丁目</name>
      </trkpt>
      <trkpt lat="36.0375742" lon="136.2293315" muitiRoute="1">
        <name>羽水三丁目</name>
      </trkpt>
      <trkpt lat="36.02918" lon="136.2311768" muitiRoute="1">
        <name>下六条町</name>
      </trkpt>
      <trkpt lat="36.0340388" lon="136.2416053" muitiRoute="1">
        <name>小稲津町</name>
      </trkpt>
      <trkpt lat="36.0394004" lon="136.2414604" muitiRoute="1">
        <name>下馬町</name>
      </trkpt>
      <trkpt lat="36.035505" lon="136.223849" muitiRoute="1">
        <name>別所町</name>
      </trkpt>
      <trkpt lat="36.0401703" lon="136.2229612" muitiRoute="1">
        <name>花堂東二丁目</name>
      </trkpt>
      <trkpt lat="36.0403221" lon="136.22022" muitiRoute="1">
        <name>花堂東一丁目</name>
      </trkpt>
      <trkpt lat="36.0416516" lon="136.216253" muitiRoute="1">
        <name>花堂北一丁目</name>
      </trkpt>
      <trkpt lat="36.0414304" lon="136.2105399" muitiRoute="1">
        <name>花堂北二丁目</name>
      </trkpt>
      <trkpt lat="36.0379255" lon="136.2114358" muitiRoute="1">
        <name>花堂中二丁目</name>
      </trkpt>
      <trkpt lat="36.0369539" lon="136.216194" muitiRoute="1">
        <name>花堂中一丁目</name>
      </trkpt>
      <trkpt lat="36.0360429" lon="136.2194449" muitiRoute="1">
        <name>大町一丁目</name>
      </trkpt>
      <trkpt lat="36.0352382" lon="136.2221298" muitiRoute="1">
        <name>大町二丁目</name>
      </trkpt>
      <trkpt lat="36.0321387" lon="136.220448" muitiRoute="1">
        <name>大町</name>
      </trkpt>
      <trkpt lat="36.0339195" lon="136.2150407" muitiRoute="1">
        <name>花堂南一丁目</name>
      </trkpt>
      <trkpt lat="36.0339607" lon="136.2116584" muitiRoute="1">
        <name>花堂南二丁目</name>
      </trkpt>
      <trkpt lat="36.0287896" lon="136.2116879" muitiRoute="1">
        <name>江端町</name>
      </trkpt>
      <trkpt lat="36.0424367" lon="136.2248254" muitiRoute="1">
        <name>木田三丁目</name>
      </trkpt>
      <trkpt lat="36.0461713" lon="136.2242246" muitiRoute="1">
        <name>木田二丁目</name>
      </trkpt>
      <trkpt lat="36.0482749" lon="136.2237042" muitiRoute="1">
        <name>木田一丁目</name>
      </trkpt>
      <trkpt lat="36.0508555" lon="136.2244713" muitiRoute="1">
        <name>春日三丁目</name>
      </trkpt>
      <trkpt lat="36.0528842" lon="136.2261236" muitiRoute="1">
        <name>一本木町</name>
      </trkpt>
      <trkpt lat="36.0552879" lon="136.2250185" muitiRoute="1">
        <name>勝見一丁目</name>
      </trkpt>
      <trkpt lat="36.0535054" lon="136.2197989" muitiRoute="1">
        <name>春日一丁目</name>
      </trkpt>
      <trkpt lat="36.0514714" lon="136.2191847" muitiRoute="1">
        <name>春日二丁目</name>
      </trkpt>
      <trkpt lat="36.0501399" lon="136.219756" muitiRoute="1">
        <name>春日町</name>
      </trkpt>
      <trkpt lat="36.0500206" lon="136.2164515" muitiRoute="1">
        <name>みのり一丁目</name>
      </trkpt>
      <trkpt lat="36.0503838" lon="136.214173" muitiRoute="1">
        <name>みのり二丁目</name>
      </trkpt>
      <trkpt lat="36.0498276" lon="136.2106526" muitiRoute="1">
        <name>みのり三丁目</name>
      </trkpt>
      <trkpt lat="36.0540324" lon="136.2114921" muitiRoute="1">
        <name>西木田三丁目</name>
      </trkpt>
      <trkpt lat="36.0540472" lon="136.2138466" muitiRoute="1">
        <name>西木田二丁目</name>
      </trkpt>
      <trkpt lat="36.0539988" lon="136.2164153" muitiRoute="1">
        <name>西木田一丁目</name>
      </trkpt>
      <trkpt lat="36.0464619" lon="136.2198928" muitiRoute="1">
        <name>木田町</name>
      </trkpt>
      <trkpt lat="36.0456551" lon="136.2173313" muitiRoute="1">
        <name>月見一丁目</name>
      </trkpt>
      <trkpt lat="36.0460932" lon="136.2136084" muitiRoute="1">
        <name>月見二丁目</name>
      </trkpt>
      <trkpt lat="36.0564719" lon="136.21194" muitiRoute="1">
        <name>毛矢三丁目</name>
      </trkpt>
      <trkpt lat="36.0582911" lon="136.2147671" muitiRoute="1">
        <name>毛矢二丁目</name>
      </trkpt>
      <trkpt lat="36.0577924" lon="136.2163053" muitiRoute="1">
        <name>毛矢一丁目</name>
      </trkpt>
      <trkpt lat="36.0586991" lon="136.2192252" muitiRoute="1">
        <name>中央二丁目</name>
      </trkpt>
      <trkpt lat="36.0577122" lon="136.2213331" muitiRoute="1">
        <name>豊島一丁目</name>
      </trkpt>
      <trkpt lat="36.0569858" lon="136.2241468" muitiRoute="1">
        <name>豊島二丁目</name>
      </trkpt>
      <trkpt lat="36.0598632" lon="136.2238222" muitiRoute="1">
        <name>手寄一丁目</name>
      </trkpt>
      <trkpt lat="36.0593818" lon="136.2269819" muitiRoute="1">
        <name>手寄二丁目</name>
      </trkpt>
      <trkpt lat="36.0637367" lon="136.2262617" muitiRoute="1">
        <name>日之出一丁目</name>
      </trkpt>
      <trkpt lat="36.064496" lon="136.2248668" muitiRoute="1">
        <name>大手二丁目</name>
      </trkpt>
      <trkpt lat="36.0652125" lon="136.2229357" muitiRoute="1">
        <name>大手</name>
      </trkpt>
      <trkpt lat="36.0647162" lon="136.220781" muitiRoute="1">
        <name>大手三丁目</name>
      </trkpt>
      <trkpt lat="36.0648566" lon="136.216296" muitiRoute="1">
        <name>順化一丁目</name>
      </trkpt>
      <trkpt lat="36.0653943" lon="136.2136486" muitiRoute="1">
        <name>順化二丁目</name>
      </trkpt>
      <trkpt lat="36.0654182" lon="136.2112051" muitiRoute="1">
        <name>照手一丁目</name>
      </trkpt>
      <trkpt lat="36.0617886" lon="136.2119079" muitiRoute="1">
        <name>つくも一丁目</name>
      </trkpt>
      <trkpt lat="36.0596832" lon="136.2134501" muitiRoute="1">
        <name>左内町</name>
      </trkpt>
      <trkpt lat="36.0624402" lon="136.2153893" muitiRoute="1">
        <name>中央三丁目</name>
      </trkpt>
      <trkpt lat="36.0611766" lon="136.2181251" muitiRoute="1">
        <name>中央</name>
      </trkpt>
      <trkpt lat="36.0609083" lon="136.2205629" muitiRoute="1">
        <name>中央一丁目</name>
      </trkpt>
      <trkpt lat="36.0658171" lon="136.2272735" muitiRoute="1">
        <name>大手一丁目</name>
      </trkpt>
      <trkpt lat="36.068834" lon="136.223609" muitiRoute="1">
        <name>宝永三丁目</name>
      </trkpt>
      <trkpt lat="36.0687852" lon="136.2169893" muitiRoute="1">
        <name>春山一丁目</name>
      </trkpt>
      <trkpt lat="36.0629616" lon="136.2275612" muitiRoute="1">
        <name>日之出二丁目</name>
      </trkpt>
      <trkpt lat="36.0630483" lon="136.2297767" muitiRoute="1">
        <name>日之出三丁目</name>
      </trkpt>
      <trkpt lat="36.0632348" lon="136.2328479" muitiRoute="1">
        <name>日之出四丁目</name>
      </trkpt>
      <trkpt lat="36.0612812" lon="136.2327111" muitiRoute="1">
        <name>城東一丁目</name>
      </trkpt>
      <trkpt lat="36.0616542" lon="136.2360826" muitiRoute="1">
        <name>城東二丁目</name>
      </trkpt>
      <trkpt lat="36.0612465" lon="136.2388775" muitiRoute="1">
        <name>城東三丁目</name>
      </trkpt>
      <trkpt lat="36.062103" lon="136.2412941" muitiRoute="1">
        <name>松城町</name>
      </trkpt>
      <trkpt lat="36.0654355" lon="136.2399369" muitiRoute="1">
        <name>米松一丁目</name>
      </trkpt>
      <trkpt lat="36.0656393" lon="136.2361926" muitiRoute="1">
        <name>四ツ井一丁目</name>
      </trkpt>
      <trkpt lat="36.066654" lon="136.2322712" muitiRoute="1">
        <name>日之出五丁目</name>
      </trkpt>
      <trkpt lat="36.0685847" lon="136.2300128" muitiRoute="1">
        <name>宝永一丁目</name>
      </trkpt>
      <trkpt lat="36.0582716" lon="136.2286287" muitiRoute="1">
        <name>御幸一丁目</name>
      </trkpt>
      <trkpt lat="36.0576406" lon="136.2323382" muitiRoute="1">
        <name>御幸二丁目</name>
      </trkpt>
      <trkpt lat="36.0555156" lon="136.2361068" muitiRoute="1">
        <name>御幸三丁目</name>
      </trkpt>
      <trkpt lat="36.0585188" lon="136.2381425" muitiRoute="1">
        <name>城東四丁目</name>
      </trkpt>
      <trkpt lat="36.0555568" lon="136.2436545" muitiRoute="1">
        <name>成和一丁目</name>
      </trkpt>
      <trkpt lat="36.069015" lon="136.2380031" muitiRoute="1">
        <name>四ツ井二丁目</name>
      </trkpt>
      <trkpt lat="36.0709164" lon="136.2378341" muitiRoute="1">
        <name>志比口二丁目</name>
      </trkpt>
      <trkpt lat="36.0726074" lon="136.2361658" muitiRoute="1">
        <name>志比口三丁目</name>
      </trkpt>
      <trkpt lat="36.0738301" lon="136.2342292" muitiRoute="1">
        <name>松本上町</name>
      </trkpt>
      <trkpt lat="36.0740574" lon="136.2313609" muitiRoute="1">
        <name>松本一丁目</name>
      </trkpt>
      <trkpt lat="36.0739555" lon="136.2275456" muitiRoute="1">
        <name>松本二丁目</name>
      </trkpt>
      <trkpt lat="36.0788834" lon="136.2302703" muitiRoute="1">
        <name>町屋二丁目</name>
      </trkpt>
      <trkpt lat="36.0788097" lon="136.2327406" muitiRoute="1">
        <name>町屋一丁目</name>
      </trkpt>
      <trkpt lat="36.0794795" lon="136.2354523" muitiRoute="1">
        <name>西開発二丁目</name>
      </trkpt>
      <trkpt lat="36.0752696" lon="136.2365091" muitiRoute="1">
        <name>西開発一丁目</name>
      </trkpt>
      <trkpt lat="36.0765465" lon="136.2408355" muitiRoute="1">
        <name>開発一丁目</name>
      </trkpt>
      <trkpt lat="36.0785452" lon="136.2412378" muitiRoute="1">
        <name>開発二丁目</name>
      </trkpt>
      <trkpt lat="36.0803683" lon="136.2417233" muitiRoute="1">
        <name>開発三丁目</name>
      </trkpt>
      <trkpt lat="36.0746193" lon="136.2416911" muitiRoute="1">
        <name>長本町</name>
      </trkpt>
      <trkpt lat="36.0748057" lon="136.2436196" muitiRoute="1">
        <name>丸山一丁目</name>
      </trkpt>
      <trkpt lat="36.0697934" lon="136.2415945" muitiRoute="1">
        <name>米松二丁目</name>
      </trkpt>
      <trkpt lat="36.0692384" lon="136.2337249" muitiRoute="1">
        <name>志比口一丁目</name>
      </trkpt>
      <trkpt lat="36.0826097" lon="136.2346905" muitiRoute="1">
        <name>西開発三丁目</name>
      </trkpt>
      <trkpt lat="36.0826747" lon="136.2313297" muitiRoute="1">
        <name>大願寺一丁目</name>
      </trkpt>
      <trkpt lat="36.0826466" lon="136.2297472" muitiRoute="1">
        <name>大願寺二丁目</name>
      </trkpt>
      <trkpt lat="36.0827159" lon="136.2280172" muitiRoute="1">
        <name>大願寺三丁目</name>
      </trkpt>
      <trkpt lat="36.0873091" lon="136.2288111" muitiRoute="1">
        <name>二の宮一丁目</name>
      </trkpt>
      <trkpt lat="36.0905344" lon="136.2314022" muitiRoute="1">
        <name>高木中央一丁目</name>
      </trkpt>
      <trkpt lat="36.0929554" lon="136.2281218" muitiRoute="1">
        <name>高木二丁目</name>
      </trkpt>
      <trkpt lat="36.0959615" lon="136.2331188" muitiRoute="1">
        <name>高木町</name>
      </trkpt>
      <trkpt lat="36.0907988" lon="136.2360102" muitiRoute="1">
        <name>高木中央二丁目</name>
      </trkpt>
      <trkpt lat="36.0860346" lon="136.233564" muitiRoute="1">
        <name>西開発四丁目</name>
      </trkpt>
      <trkpt lat="36.0902851" lon="136.2396258" muitiRoute="1">
        <name>高木中央三丁目</name>
      </trkpt>
      <trkpt lat="36.090465" lon="136.2437779" muitiRoute="1">
        <name>高柳一丁目</name>
      </trkpt>
      <trkpt lat="36.0860693" lon="136.241954" muitiRoute="1">
        <name>開発五丁目</name>
      </trkpt>
      <trkpt lat="36.0835418" lon="136.243118" muitiRoute="1">
        <name>開発町</name>
      </trkpt>
      <trkpt lat="36.0827961" lon="136.2380218" muitiRoute="1">
        <name>開発四丁目</name>
      </trkpt>
      <trkpt lat="36.0829219" lon="136.2255657" muitiRoute="1">
        <name>大宮一丁目</name>
      </trkpt>
      <trkpt lat="36.0855967" lon="136.2242192" muitiRoute="1">
        <name>二の宮二丁目</name>
      </trkpt>
      <trkpt lat="36.088252" lon="136.2244016" muitiRoute="1">
        <name>経栄一丁目</name>
      </trkpt>
      <trkpt lat="36.0879919" lon="136.2259921" muitiRoute="1">
        <name>幾代二丁目</name>
      </trkpt>
      <trkpt lat="36.0892252" lon="136.2222102" muitiRoute="1">
        <name>経田一丁目</name>
      </trkpt>
      <trkpt lat="36.0890171" lon="136.2181038" muitiRoute="1">
        <name>経田二丁目</name>
      </trkpt>
      <trkpt lat="36.0854103" lon="136.2182915" muitiRoute="1">
        <name>二の宮三丁目</name>
      </trkpt>
      <trkpt lat="36.0853063" lon="136.2122673" muitiRoute="1">
        <name>二の宮四丁目</name>
      </trkpt>
      <trkpt lat="36.0883062" lon="136.2121627" muitiRoute="1">
        <name>新田塚町</name>
      </trkpt>
      <trkpt lat="36.0906947" lon="136.2116075" muitiRoute="1">
        <name>灯明寺一丁目</name>
      </trkpt>
      <trkpt lat="36.09374" lon="136.2126777" muitiRoute="1">
        <name>灯明寺二丁目</name>
      </trkpt>
      <trkpt lat="36.0930746" lon="136.2180769" muitiRoute="1">
        <name>灯明寺町</name>
      </trkpt>
      <trkpt lat="36.0820071" lon="136.2197882" muitiRoute="1">
        <name>大宮二丁目</name>
      </trkpt>
      <trkpt lat="36.0815606" lon="136.2125516" muitiRoute="1">
        <name>大宮三丁目</name>
      </trkpt>
      <trkpt lat="36.0771708" lon="136.2128761" muitiRoute="1">
        <name>文京三丁目</name>
      </trkpt>
      <trkpt lat="36.0776586" lon="136.2178597" muitiRoute="1">
        <name>文京二丁目</name>
      </trkpt>
      <trkpt lat="36.0779166" lon="136.2225777" muitiRoute="1">
        <name>文京一丁目</name>
      </trkpt>
      <trkpt lat="36.0821892" lon="136.2264723" muitiRoute="1">
        <name>幾久町</name>
      </trkpt>
      <trkpt lat="36.0781442" lon="136.2269846" muitiRoute="1">
        <name>町屋三丁目</name>
      </trkpt>
      <trkpt lat="36.0735478" lon="136.22553" muitiRoute="1">
        <name>松本</name>
      </trkpt>
      <trkpt lat="36.073144" lon="136.2243746" muitiRoute="1">
        <name>松本三丁目</name>
      </trkpt>
      <trkpt lat="36.0729116" lon="136.2204723" muitiRoute="1">
        <name>松本四丁目</name>
      </trkpt>
      <trkpt lat="36.0727809" lon="136.2174922" muitiRoute="1">
        <name>田原一丁目</name>
      </trkpt>
      <trkpt lat="36.0728546" lon="136.2145874" muitiRoute="1">
        <name>田原二丁目</name>
      </trkpt>
      <trkpt lat="36.072421" lon="136.2118542" muitiRoute="1">
        <name>乾徳一丁目</name>
      </trkpt>
      <trkpt lat="36.0691061" lon="136.2114358" muitiRoute="1">
        <name>花月一丁目</name>
      </trkpt>
      <trkpt lat="36.0688785" lon="136.2196393" muitiRoute="1">
        <name>宝永四丁目</name>
      </trkpt>
      <trkpt lat="36.0688866" lon="136.2271334" muitiRoute="1">
        <name>宝永二丁目</name>
      </trkpt>
      <trkpt lat="36.0690259" lon="136.2142535" muitiRoute="1">
        <name>春山二丁目</name>
      </trkpt>
      <trkpt lat="36.0693749" lon="136.2094671" muitiRoute="1">
        <name>花月二丁目</name>
      </trkpt>
      <trkpt lat="36.069518" lon="136.2076673" muitiRoute="1">
        <name>花月三丁目</name>
      </trkpt>
      <trkpt lat="36.0695972" lon="136.2056851" muitiRoute="1">
        <name>花月四丁目</name>
      </trkpt>
      <trkpt lat="36.0696806" lon="136.20388" muitiRoute="1">
        <name>花月五丁目</name>
      </trkpt>
      <trkpt lat="36.0698541" lon="136.2018362" muitiRoute="1">
        <name>学園一丁目</name>
      </trkpt>
      <trkpt lat="36.06993" lon="136.1992344" muitiRoute="1">
        <name>学園二丁目</name>
      </trkpt>
      <trkpt lat="36.0696308" lon="136.1961338" muitiRoute="1">
        <name>学園三丁目</name>
      </trkpt>
      <trkpt lat="36.0714302" lon="136.1946103" muitiRoute="1">
        <name>菅谷一丁目</name>
      </trkpt>
      <trkpt lat="36.0728372" lon="136.1997521" muitiRoute="1">
        <name>日光二丁目</name>
      </trkpt>
      <trkpt lat="36.0730518" lon="136.2030834" muitiRoute="1">
        <name>日光一丁目</name>
      </trkpt>
      <trkpt lat="36.073093" lon="136.2055483" muitiRoute="1">
        <name>乾徳四丁目</name>
      </trkpt>
      <trkpt lat="36.0726313" lon="136.2078229" muitiRoute="1">
        <name>乾徳三丁目</name>
      </trkpt>
      <trkpt lat="36.0725034" lon="136.209805" muitiRoute="1">
        <name>乾徳二丁目</name>
      </trkpt>
      <trkpt lat="36.0769952" lon="136.2085873" muitiRoute="1">
        <name>文京四丁目</name>
      </trkpt>
      <trkpt lat="36.076928" lon="136.205036" muitiRoute="1">
        <name>文京五丁目</name>
      </trkpt>
      <trkpt lat="36.0763102" lon="136.2001464" muitiRoute="1">
        <name>文京六丁目</name>
      </trkpt>
      <trkpt lat="36.0762593" lon="136.1955357" muitiRoute="1">
        <name>文京七丁目</name>
      </trkpt>
      <trkpt lat="36.0806371" lon="136.1964208" muitiRoute="1">
        <name>堀ノ宮一丁目</name>
      </trkpt>
      <trkpt lat="36.080416" lon="136.1997414" muitiRoute="1">
        <name>大宮六丁目</name>
      </trkpt>
      <trkpt lat="36.0808777" lon="136.2041938" muitiRoute="1">
        <name>大宮五丁目</name>
      </trkpt>
      <trkpt lat="36.0813525" lon="136.2076914" muitiRoute="1">
        <name>大宮四丁目</name>
      </trkpt>
      <trkpt lat="36.082406" lon="136.1941731" muitiRoute="1">
        <name>三郎丸三丁目</name>
      </trkpt>
      <trkpt lat="36.0814132" lon="136.1934623" muitiRoute="1">
        <name>三郎丸町</name>
      </trkpt>
      <trkpt lat="36.0785777" lon="136.1917242" muitiRoute="1">
        <name>三郎丸二丁目</name>
      </trkpt>
      <trkpt lat="36.0776326" lon="136.1932451" muitiRoute="1">
        <name>三郎丸一丁目</name>
      </trkpt>
      <trkpt lat="36.0732101" lon="136.1918825" muitiRoute="1">
        <name>菅谷二丁目</name>
      </trkpt>
      <trkpt lat="36.0709944" lon="136.1899781" muitiRoute="1">
        <name>豊岡二丁目</name>
      </trkpt>
      <trkpt lat="36.0696503" lon="136.1871698" muitiRoute="1">
        <name>西学園三丁目</name>
      </trkpt>
      <trkpt lat="36.0709988" lon="136.1825001" muitiRoute="1">
        <name>大瀬町</name>
      </trkpt>
      <trkpt lat="36.0746409" lon="136.1863947" muitiRoute="1">
        <name>菅谷町</name>
      </trkpt>
      <trkpt lat="36.0807108" lon="136.1885512" muitiRoute="1">
        <name>西堀町</name>
      </trkpt>
      <trkpt lat="36.0686801" lon="136.186852" muitiRoute="1">
        <name>西学園二丁目</name>
      </trkpt>
      <trkpt lat="36.0676448" lon="136.1861587" muitiRoute="1">
        <name>西学園一丁目</name>
      </trkpt>
      <trkpt lat="36.0664979" lon="136.1879933" muitiRoute="1">
        <name>水越二丁目</name>
      </trkpt>
      <trkpt lat="36.0673738" lon="136.1897796" muitiRoute="1">
        <name>水越一丁目</name>
      </trkpt>
      <trkpt lat="36.0685836" lon="136.1921239" muitiRoute="1">
        <name>豊岡一丁目</name>
      </trkpt>
      <trkpt lat="36.0663841" lon="136.1932906" muitiRoute="1">
        <name>光陽四丁目</name>
      </trkpt>
      <trkpt lat="36.062992" lon="136.191861" muitiRoute="1">
        <name>加茂河原三丁目</name>
      </trkpt>
      <trkpt lat="36.0619967" lon="136.1942214" muitiRoute="1">
        <name>加茂河原二丁目</name>
      </trkpt>
      <trkpt lat="36.0594165" lon="136.193229" muitiRoute="1">
        <name>加茂河原四丁目</name>
      </trkpt>
      <trkpt lat="36.0585969" lon="136.1924189" muitiRoute="1">
        <name>若杉町</name>
      </trkpt>
      <trkpt lat="36.0595292" lon="136.1888194" muitiRoute="1">
        <name>若杉一丁目</name>
      </trkpt>
      <trkpt lat="36.0606893" lon="136.1864912" muitiRoute="1">
        <name>若杉浜三丁目</name>
      </trkpt>
      <trkpt lat="36.0619599" lon="136.1878699" muitiRoute="1">
        <name>若杉浜二丁目</name>
      </trkpt>
      <trkpt lat="36.0634061" lon="136.1887926" muitiRoute="1">
        <name>若杉浜一丁目</name>
      </trkpt>
      <trkpt lat="36.062335" lon="136.185134" muitiRoute="1">
        <name>渡町</name>
      </trkpt>
      <trkpt lat="36.0650236" lon="136.1831331" muitiRoute="1">
        <name>飯塚町</name>
      </trkpt>
      <trkpt lat="36.0603781" lon="136.1792667" muitiRoute="1">
        <name>狐橋二丁目</name>
      </trkpt>
      <trkpt lat="36.0588484" lon="136.1799842" muitiRoute="1">
        <name>狐橋一丁目</name>
      </trkpt>
      <trkpt lat="36.0573999" lon="136.1811429" muitiRoute="1">
        <name>高塚町</name>
      </trkpt>
      <trkpt lat="36.057452" lon="136.1846566" muitiRoute="1">
        <name>若杉四丁目</name>
      </trkpt>
      <trkpt lat="36.0555568" lon="136.1896187" muitiRoute="1">
        <name>若杉二丁目</name>
      </trkpt>
      <trkpt lat="36.0555525" lon="136.1937171" muitiRoute="1">
        <name>加茂河原町</name>
      </trkpt>
      <trkpt lat="36.0575279" lon="136.1995308" muitiRoute="1">
        <name>足羽五丁目</name>
      </trkpt>
      <trkpt lat="36.0559558" lon="136.2019193" muitiRoute="1">
        <name>足羽四丁目</name>
      </trkpt>
      <trkpt lat="36.0588029" lon="136.2023672" muitiRoute="1">
        <name>桃園二丁目</name>
      </trkpt>
      <trkpt lat="36.0578076" lon="136.2051165" muitiRoute="1">
        <name>足羽三丁目</name>
      </trkpt>
      <trkpt lat="36.0603532" lon="136.205311" muitiRoute="1">
        <name>足羽二丁目</name>
      </trkpt>
      <trkpt lat="36.0629584" lon="136.2053029" muitiRoute="1">
        <name>有楽町</name>
      </trkpt>
      <trkpt lat="36.0647363" lon="136.2043373" muitiRoute="1">
        <name>照手町四丁目</name>
      </trkpt>
      <trkpt lat="36.0661439" lon="136.2054672" muitiRoute="1">
        <name>照手四丁目</name>
      </trkpt>
      <trkpt lat="36.0663711" lon="136.2076022" muitiRoute="1">
        <name>照手三丁目</name>
      </trkpt>
      <trkpt lat="36.0661456" lon="136.2091666" muitiRoute="1">
        <name>照手二丁目</name>
      </trkpt>
      <trkpt lat="36.0629985" lon="136.209408" muitiRoute="1">
        <name>つくも二丁目</name>
      </trkpt>
      <trkpt lat="36.0594425" lon="136.2097138" muitiRoute="1">
        <name>足羽一丁目</name>
      </trkpt>
      <trkpt lat="36.0617322" lon="136.202319" muitiRoute="1">
        <name>桃園一丁目</name>
      </trkpt>
      <trkpt lat="36.0609993" lon="136.1988348" muitiRoute="1">
        <name>明里町</name>
      </trkpt>
      <trkpt lat="36.0611251" lon="136.1964154" muitiRoute="1">
        <name>加茂河原一丁目</name>
      </trkpt>
      <trkpt lat="36.0659255" lon="136.196335" muitiRoute="1">
        <name>光陽三丁目</name>
      </trkpt>
      <trkpt lat="36.0658323" lon="136.199213" muitiRoute="1">
        <name>光陽二丁目</name>
      </trkpt>
      <trkpt lat="36.0658128" lon="136.202551" muitiRoute="1">
        <name>光陽一丁目</name>
      </trkpt>
      <trkpt lat="36.0551708" lon="136.2076002" muitiRoute="1">
        <name>足羽上町</name>
      </trkpt>
      <trkpt lat="36.0538318" lon="136.2093906" muitiRoute="1">
        <name>西木田四丁目</name>
      </trkpt>
      <trkpt lat="36.051376" lon="136.2060016" muitiRoute="1">
        <name>西木田五丁目</name>
      </trkpt>
      <trkpt lat="36.0494828" lon="136.2061518" muitiRoute="1">
        <name>みのり四丁目</name>
      </trkpt>
      <trkpt lat="36.0464532" lon="136.20561" muitiRoute="1">
        <name>月見四丁目</name>
      </trkpt>
      <trkpt lat="36.0444689" lon="136.2071026" muitiRoute="1">
        <name>山奥町</name>
      </trkpt>
      <trkpt lat="36.0463448" lon="136.2099659" muitiRoute="1">
        <name>月見三丁目</name>
      </trkpt>
      <trkpt lat="36.0415519" lon="136.204859" muitiRoute="1">
        <name>西谷町</name>
      </trkpt>
      <trkpt lat="36.0384417" lon="136.2033999" muitiRoute="1">
        <name>西谷二丁目</name>
      </trkpt>
      <trkpt lat="36.038355" lon="136.207965" muitiRoute="1">
        <name>西谷一丁目</name>
      </trkpt>
      <trkpt lat="36.0340952" lon="136.2043709" muitiRoute="1">
        <name>舞屋町</name>
      </trkpt>
      <trkpt lat="36.0351016" lon="136.2003744" muitiRoute="1">
        <name>江守中町</name>
      </trkpt>
      <trkpt lat="36.0350201" lon="136.1954354" muitiRoute="1">
        <name>江守中一丁目</name>
      </trkpt>
      <trkpt lat="36.0376024" lon="136.1959836" muitiRoute="1">
        <name>江守中二丁目</name>
      </trkpt>
      <trkpt lat="36.0398168" lon="136.1937171" muitiRoute="1">
        <name>渕一丁目</name>
      </trkpt>
      <trkpt lat="36.0419076" lon="136.1933684" muitiRoute="1">
        <name>渕町</name>
      </trkpt>
      <trkpt lat="36.0433216" lon="136.1893076" muitiRoute="1">
        <name>渕二丁目</name>
      </trkpt>
      <trkpt lat="36.0417774" lon="136.1858851" muitiRoute="1">
        <name>渕三丁目</name>
      </trkpt>
      <trkpt lat="36.0381403" lon="136.1880335" muitiRoute="1">
        <name>種池二丁目</name>
      </trkpt>
      <trkpt lat="36.0360559" lon="136.1905253" muitiRoute="1">
        <name>種池一丁目</name>
      </trkpt>
      <trkpt lat="36.0357219" lon="136.1860245" muitiRoute="1">
        <name>種池町</name>
      </trkpt>
      <trkpt lat="36.0336006" lon="136.1847907" muitiRoute="1">
        <name>新下江守町</name>
      </trkpt>
      <trkpt lat="36.0308936" lon="136.1828488" muitiRoute="1">
        <name>江守の里一丁目</name>
      </trkpt>
      <trkpt lat="36.0315574" lon="136.1925208" muitiRoute="1">
        <name>南江守町</name>
      </trkpt>
      <trkpt lat="36.0402636" lon="136.1983198" muitiRoute="1">
        <name>西谷三丁目</name>
      </trkpt>
      <trkpt lat="36.0457072" lon="136.2013533" muitiRoute="1">
        <name>月見五丁目</name>
      </trkpt>
      <trkpt lat="36.046399" lon="136.1964262" muitiRoute="1">
        <name>門前町</name>
      </trkpt>
      <trkpt lat="36.0489125" lon="136.194731" muitiRoute="1">
        <name>門前二丁目</name>
      </trkpt>
      <trkpt lat="36.0493115" lon="136.1968768" muitiRoute="1">
        <name>門前一丁目</name>
      </trkpt>
      <trkpt lat="36.049923" lon="136.1901766" muitiRoute="1">
        <name>福二丁目</name>
      </trkpt>
      <trkpt lat="36.0473033" lon="136.1897153" muitiRoute="1">
        <name>福一丁目</name>
      </trkpt>
      <trkpt lat="36.0486327" lon="136.184198" muitiRoute="1">
        <name>福新町</name>
      </trkpt>
      <trkpt lat="36.0456118" lon="136.184206" muitiRoute="1">
        <name>渕四丁目</name>
      </trkpt>
      <trkpt lat="36.0482467" lon="136.179767" muitiRoute="1">
        <name>運動公園二丁目</name>
      </trkpt>
      <trkpt lat="36.0524841" lon="136.1779967" muitiRoute="1">
        <name>運動公園四丁目</name>
      </trkpt>
      <trkpt lat="36.0527248" lon="136.1804482" muitiRoute="1">
        <name>運動公園一丁目</name>
      </trkpt>
      <trkpt lat="36.0550147" lon="136.1774066" muitiRoute="1">
        <name>運動公園三丁目</name>
      </trkpt>
      <trkpt lat="36.0537049" lon="136.1872369" muitiRoute="1">
        <name>福町</name>
      </trkpt>
      <trkpt lat="36.0527551" lon="136.1902034" muitiRoute="1">
        <name>若杉三丁目</name>
      </trkpt>
      <trkpt lat="36.0536139" lon="136.1920354" muitiRoute="1">
        <name>加茂緑苑町</name>
      </trkpt>
      <trkpt lat="36.0547848" lon="136.1970431" muitiRoute="1">
        <name>小山谷町</name>
      </trkpt>
      <trkpt lat="36.0418902" lon="136.1792815" muitiRoute="1">
        <name>下江守町</name>
      </trkpt>
      <trkpt lat="36.0301691" lon="136.2063503" muitiRoute="1">
        <name>大島町</name>
      </trkpt>
      <trkpt lat="36.0375612" lon="136.1727369" muitiRoute="1">
        <name>朝宮町</name>
      </trkpt>
      <trkpt lat="36.0386174" lon="136.1688825" muitiRoute="1">
        <name>グリーンハイツ十丁目</name>
      </trkpt>
      <trkpt lat="36.0402376" lon="136.1674905" muitiRoute="1">
        <name>グリーンハイツ九丁目</name>
      </trkpt>
      <trkpt lat="36.0411051" lon="136.1665624" muitiRoute="1">
        <name>グリーンハイツ七丁目</name>
      </trkpt>
      <trkpt lat="36.0425842" lon="136.1661011" muitiRoute="1">
        <name>グリーンハイツ六丁目</name>
      </trkpt>
      <trkpt lat="36.0418338" lon="136.1648726" muitiRoute="1">
        <name>グリーンハイツ五丁目</name>
      </trkpt>
      <trkpt lat="36.0441761" lon="136.1638185" muitiRoute="1">
        <name>グリーンハイツ四丁目</name>
      </trkpt>
      <trkpt lat="36.0451867" lon="136.1638212" muitiRoute="1">
        <name>グリーンハイツ三丁目</name>
      </trkpt>
      <trkpt lat="36.0484484" lon="136.1658704" muitiRoute="1">
        <name>片粕町</name>
      </trkpt>
      <trkpt lat="36.0458677" lon="136.159181" muitiRoute="1">
        <name>グリーンハイツ一丁目</name>
      </trkpt>
      <trkpt lat="36.0453689" lon="136.1574966" muitiRoute="1">
        <name>グリーンハイツ二丁目</name>
      </trkpt>
      <trkpt lat="36.048431" lon="136.1526954" muitiRoute="1">
        <name>竹生町</name>
      </trkpt>
      <trkpt lat="36.0388972" lon="136.1500025" muitiRoute="1">
        <name>三留町</name>
      </trkpt>
      <trkpt lat="36.036147" lon="136.1551952" muitiRoute="1">
        <name>清水杉谷町</name>
      </trkpt>
      <trkpt lat="36.0338913" lon="136.1649263" muitiRoute="1">
        <name>田尻栃谷町</name>
      </trkpt>
      <trkpt lat="36.0413306" lon="136.1691749" muitiRoute="1">
        <name>グリーンハイツ八丁目</name>
      </trkpt>
      <trkpt lat="36.0528809" lon="136.1729729" muitiRoute="1">
        <name>久喜津町</name>
      </trkpt>
      <trkpt lat="36.0565152" lon="136.1574912" muitiRoute="1">
        <name>清水町</name>
      </trkpt>
      <trkpt lat="36.0560469" lon="136.1463761" muitiRoute="1">
        <name>細坂町</name>
      </trkpt>
      <trkpt lat="36.0662724" lon="136.1519229" muitiRoute="1">
        <name>安田町</name>
      </trkpt>
      <trkpt lat="36.0677207" lon="136.1581671" muitiRoute="1">
        <name>北堀町</name>
      </trkpt>
      <trkpt lat="36.0700275" lon="136.1613321" muitiRoute="1">
        <name>恐神町</name>
      </trkpt>
      <trkpt lat="36.0719961" lon="136.1672115" muitiRoute="1">
        <name>金屋町</name>
      </trkpt>
      <trkpt lat="36.0661076" lon="136.167705" muitiRoute="1">
        <name>西下野町</name>
      </trkpt>
      <trkpt lat="36.0683364" lon="136.1699366" muitiRoute="1">
        <name>東下野町</name>
      </trkpt>
      <trkpt lat="36.0702617" lon="136.1763096" muitiRoute="1">
        <name>角折町</name>
      </trkpt>
      <trkpt lat="36.0750225" lon="136.1739385" muitiRoute="1">
        <name>下市町</name>
      </trkpt>
      <trkpt lat="36.0621789" lon="136.1374605" muitiRoute="1">
        <name>羽坂町</name>
      </trkpt>
      <trkpt lat="36.0560989" lon="136.1295426" muitiRoute="1">
        <name>本堂町</name>
      </trkpt>
      <trkpt lat="36.0778754" lon="136.1279333" muitiRoute="1">
        <name>東平町</name>
      </trkpt>
      <trkpt lat="36.0820721" lon="136.1189532" muitiRoute="1">
        <name>猫瀬町</name>
      </trkpt>
      <trkpt lat="36.077173" lon="136.1058962" muitiRoute="1">
        <name>足谷町</name>
      </trkpt>
      <trkpt lat="36.0823409" lon="136.1009502" muitiRoute="1">
        <name>奥平町</name>
      </trkpt>
      <trkpt lat="36.0689348" lon="136.0911119" muitiRoute="1">
        <name>上一光町</name>
      </trkpt>
      <trkpt lat="36.083808" lon="136.076794" muitiRoute="1">
        <name>国見元町</name>
      </trkpt>
      <trkpt lat="36.0936381" lon="136.105349" muitiRoute="1">
        <name>中平町</name>
      </trkpt>
      <trkpt lat="36.069247" lon="136.0681093" muitiRoute="1">
        <name>五太子町</name>
      </trkpt>
      <trkpt lat="36.0604356" lon="136.0679805" muitiRoute="1">
        <name>下一光町</name>
      </trkpt>
      <trkpt lat="36.0532973" lon="136.0447955" muitiRoute="1">
        <name>国山町</name>
      </trkpt>
      <trkpt lat="36.0437901" lon="136.0455143" muitiRoute="1">
        <name>畠中町</name>
      </trkpt>
      <trkpt lat="36.037726" lon="136.0480571" muitiRoute="1">
        <name>風尾町</name>
      </trkpt>
      <trkpt lat="36.0343424" lon="136.0477459" muitiRoute="1">
        <name>大矢町</name>
      </trkpt>
      <trkpt lat="36.0319912" lon="136.0555673" muitiRoute="1">
        <name>水谷町</name>
      </trkpt>
      <trkpt lat="36.0300216" lon="136.059097" muitiRoute="1">
        <name>宿堂町</name>
      </trkpt>
      <trkpt lat="36.0306463" lon="136.0637534" muitiRoute="1">
        <name>西別所町</name>
      </trkpt>
      <trkpt lat="36.0347675" lon="136.0758018" muitiRoute="1">
        <name>白滝町</name>
      </trkpt>
      <trkpt lat="36.0186199" lon="136.0536253" muitiRoute="1">
        <name>別畑町</name>
      </trkpt>
      <trkpt lat="36.0214661" lon="136.0469949" muitiRoute="1">
        <name>尼ケ谷町</name>
      </trkpt>
      <trkpt lat="36.0317743" lon="136.0365236" muitiRoute="1">
        <name>二ツ屋町</name>
      </trkpt>
      <trkpt lat="36.0361557" lon="136.0381758" muitiRoute="1">
        <name>武周町</name>
      </trkpt>
      <trkpt lat="36.0406323" lon="136.0392916" muitiRoute="1">
        <name>謡谷町</name>
      </trkpt>
      <trkpt lat="36.0487" lon="136.0316849" muitiRoute="1">
        <name>千合町</name>
      </trkpt>
      <trkpt lat="36.0506083" lon="136.0198188" muitiRoute="1">
        <name>大味町</name>
      </trkpt>
      <trkpt lat="36.0428184" lon="136.0132956" muitiRoute="1">
        <name>茱崎町</name>
      </trkpt>
      <trkpt lat="36.0371534" lon="136.0114825" muitiRoute="1">
        <name>蒲生町</name>
      </trkpt>
      <trkpt lat="36.071814" lon="136.0267818" muitiRoute="1">
        <name>小丹生町</name>
      </trkpt>
      <trkpt lat="36.0747797" lon="136.0262561" muitiRoute="1">
        <name>大丹生町</name>
      </trkpt>
      <trkpt lat="36.0817773" lon="136.0300112" muitiRoute="1">
        <name>白浜町</name>
      </trkpt>
      <trkpt lat="36.0885576" lon="136.033777" muitiRoute="1">
        <name>鮎川町</name>
      </trkpt>
      <trkpt lat="36.1056791" lon="136.0435724" muitiRoute="1">
        <name>南菅生町</name>
      </trkpt>
      <trkpt lat="36.1087476" lon="136.0491407" muitiRoute="1">
        <name>北菅生町</name>
      </trkpt>
      <trkpt lat="36.0974526" lon="136.0644507" muitiRoute="1">
        <name>国見町</name>
      </trkpt>
      <trkpt lat="36.1147281" lon="136.0509431" muitiRoute="1">
        <name>長橋町</name>
      </trkpt>
      <trkpt lat="36.1208816" lon="136.0552561" muitiRoute="1">
        <name>糸崎町</name>
      </trkpt>
      <trkpt lat="36.1270519" lon="136.0548806" muitiRoute="1">
        <name>松蔭町</name>
      </trkpt>
      <trkpt lat="36.1278838" lon="136.0593974" muitiRoute="1">
        <name>蓑町</name>
      </trkpt>
      <trkpt lat="36.131142" lon="136.0629487" muitiRoute="1">
        <name>和布町</name>
      </trkpt>
      <trkpt lat="36.1334557" lon="136.06974" muitiRoute="1">
        <name>浜住町</name>
      </trkpt>
      <trkpt lat="36.1367916" lon="136.0756087" muitiRoute="1">
        <name>免鳥町</name>
      </trkpt>
      <trkpt lat="36.1354399" lon="136.0823035" muitiRoute="1">
        <name>西二ツ屋町</name>
      </trkpt>
      <trkpt lat="36.1344868" lon="136.0880756" muitiRoute="1">
        <name>西畑町</name>
      </trkpt>
      <trkpt lat="36.1350587" lon="136.0989976" muitiRoute="1">
        <name>市ノ瀬町</name>
      </trkpt>
      <trkpt lat="36.1158635" lon="136.1057675" muitiRoute="1">
        <name>高須町</name>
      </trkpt>
      <trkpt lat="36.1156122" lon="136.086595" muitiRoute="1">
        <name>宮郷町</name>
      </trkpt>
      <trkpt lat="36.1381433" lon="136.0813594" muitiRoute="1">
        <name>大窪町</name>
      </trkpt>
      <trkpt lat="36.1454646" lon="136.0895026" muitiRoute="1">
        <name>両橋屋町</name>
      </trkpt>
      <trkpt lat="36.145196" lon="136.0959828" muitiRoute="1">
        <name>川尻町</name>
      </trkpt>
      <trkpt lat="36.1453606" lon="136.1048341" muitiRoute="1">
        <name>浜別所町</name>
      </trkpt>
      <trkpt lat="36.1489127" lon="136.1058962" muitiRoute="1">
        <name>石橋町</name>
      </trkpt>
      <trkpt lat="36.1475352" lon="136.1097157" muitiRoute="1">
        <name>石新保町</name>
      </trkpt>
      <trkpt lat="36.1501169" lon="136.1114645" muitiRoute="1">
        <name>浜島町</name>
      </trkpt>
      <trkpt lat="36.1427268" lon="136.1111855" muitiRoute="1">
        <name>深坂町</name>
      </trkpt>
      <trkpt lat="36.1397982" lon="136.1173975" muitiRoute="1">
        <name>中山町</name>
      </trkpt>
      <trkpt lat="36.140864" lon="136.1210132" muitiRoute="1">
        <name>為寄町</name>
      </trkpt>
      <trkpt lat="36.1383686" lon="136.1223972" muitiRoute="1">
        <name>石畠町</name>
      </trkpt>
      <trkpt lat="36.1382213" lon="136.127826" muitiRoute="1">
        <name>小野町</name>
      </trkpt>
      <trkpt lat="36.1421636" lon="136.1325359" muitiRoute="1">
        <name>串野町</name>
      </trkpt>
      <trkpt lat="36.1453693" lon="136.1283946" muitiRoute="1">
        <name>木下町</name>
      </trkpt>
      <trkpt lat="36.1451613" lon="136.1231375" muitiRoute="1">
        <name>小幡町</name>
      </trkpt>
      <trkpt lat="36.1400928" lon="136.1424816" muitiRoute="1">
        <name>佐野町</name>
      </trkpt>
      <trkpt lat="36.1450227" lon="136.1427176" muitiRoute="1">
        <name>水切町</name>
      </trkpt>
      <trkpt lat="36.1498916" lon="136.1406469" muitiRoute="1">
        <name>菖蒲谷町</name>
      </trkpt>
      <trkpt lat="36.1627815" lon="136.120584" muitiRoute="1">
        <name>白方町</name>
      </trkpt>
      <trkpt lat="36.1355612" lon="136.1184704" muitiRoute="1">
        <name>田ノ頭町</name>
      </trkpt>
      <trkpt lat="36.1306741" lon="136.1345529" muitiRoute="1">
        <name>大谷町</name>
      </trkpt>
      <trkpt lat="36.1236895" lon="136.1314094" muitiRoute="1">
        <name>燈豊町</name>
      </trkpt>
      <trkpt lat="36.1149535" lon="136.1328792" muitiRoute="1">
        <name>荒谷町</name>
      </trkpt>
      <trkpt lat="36.1117726" lon="136.1417735" muitiRoute="1">
        <name>大年町</name>
      </trkpt>
      <trkpt lat="36.1255613" lon="136.1471915" muitiRoute="1">
        <name>八幡町</name>
      </trkpt>
      <trkpt lat="36.1337503" lon="136.1566651" muitiRoute="1">
        <name>内山梨子町</name>
      </trkpt>
      <trkpt lat="36.1363671" lon="136.1628985" muitiRoute="1">
        <name>島山梨子町</name>
      </trkpt>
      <trkpt lat="36.133213" lon="136.1691749" muitiRoute="1">
        <name>御所垣内町</name>
      </trkpt>
      <trkpt lat="36.1294783" lon="136.1725116" muitiRoute="1">
        <name>江上町</name>
      </trkpt>
      <trkpt lat="36.1290363" lon="136.1623514" muitiRoute="1">
        <name>仙町</name>
      </trkpt>
      <trkpt lat="36.1246081" lon="136.1639178" muitiRoute="1">
        <name>剣大谷町</name>
      </trkpt>
      <trkpt lat="36.1222162" lon="136.1672759" muitiRoute="1">
        <name>天菅生町</name>
      </trkpt>
      <trkpt lat="36.113272" lon="136.1703658" muitiRoute="1">
        <name>岸水町</name>
      </trkpt>
      <trkpt lat="36.1139741" lon="136.1781442" muitiRoute="1">
        <name>高屋町</name>
      </trkpt>
      <trkpt lat="36.1118246" lon="136.185236" muitiRoute="1">
        <name>六日市町</name>
      </trkpt>
      <trkpt lat="36.1217482" lon="136.1836588" muitiRoute="1">
        <name>山室町</name>
      </trkpt>
      <trkpt lat="36.1284037" lon="136.1853218" muitiRoute="1">
        <name>二日市町</name>
      </trkpt>
      <trkpt lat="36.1191569" lon="136.2079167" muitiRoute="1">
        <name>川合鷲塚町</name>
      </trkpt>
      <trkpt lat="36.1074734" lon="136.1756873" muitiRoute="1">
        <name>四十谷町</name>
      </trkpt>
      <trkpt lat="36.10346" lon="136.1710632" muitiRoute="1">
        <name>田ノ谷町</name>
      </trkpt>
      <trkpt lat="36.096447" lon="136.1557853" muitiRoute="1">
        <name>柿谷町</name>
      </trkpt>
      <trkpt lat="36.0850375" lon="136.1743569" muitiRoute="1">
        <name>深谷町</name>
      </trkpt>
      <trkpt lat="36.08476" lon="136.1883366" muitiRoute="1">
        <name>三ツ屋町</name>
      </trkpt>
      <trkpt lat="36.0862817" lon="136.1913031" muitiRoute="1">
        <name>地蔵堂町</name>
      </trkpt>
      <trkpt lat="36.087075" lon="136.1934328" muitiRoute="1">
        <name>里別所町</name>
      </trkpt>
      <trkpt lat="36.0845801" lon="136.1931056" muitiRoute="1">
        <name>三ツ屋二丁目</name>
      </trkpt>
      <trkpt lat="36.0837781" lon="136.1918583" muitiRoute="1">
        <name>三ツ屋一丁目</name>
      </trkpt>
      <trkpt lat="36.0833164" lon="136.1941141" muitiRoute="1">
        <name>三郎丸四丁目</name>
      </trkpt>
      <trkpt lat="36.0836502" lon="136.1965227" muitiRoute="1">
        <name>堀ノ宮町</name>
      </trkpt>
      <trkpt lat="36.0837889" lon="136.2025952" muitiRoute="1">
        <name>八ツ島町</name>
      </trkpt>
      <trkpt lat="36.0860714" lon="136.2051111" muitiRoute="1">
        <name>八ツ島一丁目</name>
      </trkpt>
      <trkpt lat="36.0853041" lon="136.2076244" muitiRoute="1">
        <name>二の宮五丁目</name>
      </trkpt>
      <trkpt lat="36.0916376" lon="136.2077022" muitiRoute="1">
        <name>新田塚一丁目</name>
      </trkpt>
      <trkpt lat="36.0915791" lon="136.2026408" muitiRoute="1">
        <name>新田塚二丁目</name>
      </trkpt>
      <trkpt lat="36.0884839" lon="136.1983252" muitiRoute="1">
        <name>里別所新町</name>
      </trkpt>
      <trkpt lat="36.093404" lon="136.1938298" muitiRoute="1">
        <name>上伏町</name>
      </trkpt>
      <trkpt lat="36.0973485" lon="136.1935723" muitiRoute="1">
        <name>安竹町</name>
      </trkpt>
      <trkpt lat="36.1014836" lon="136.1916089" muitiRoute="1">
        <name>土橋町</name>
      </trkpt>
      <trkpt lat="36.1038501" lon="136.1890769" muitiRoute="1">
        <name>黒丸町</name>
      </trkpt>
      <trkpt lat="36.1062772" lon="136.1940658" muitiRoute="1">
        <name>郡町</name>
      </trkpt>
      <trkpt lat="36.1064939" lon="136.198926" muitiRoute="1">
        <name>網戸瀬町</name>
      </trkpt>
      <trkpt lat="36.1083488" lon="136.1986577" muitiRoute="1">
        <name>河合勝見町</name>
      </trkpt>
      <trkpt lat="36.1038934" lon="136.206361" muitiRoute="1">
        <name>中角町</name>
      </trkpt>
      <trkpt lat="36.1000879" lon="136.2084961" muitiRoute="1">
        <name>舟橋新町</name>
      </trkpt>
      <trkpt lat="36.0968024" lon="136.2093222" muitiRoute="1">
        <name>灯明寺四丁目</name>
      </trkpt>
      <trkpt lat="36.0975913" lon="136.2053928" muitiRoute="1">
        <name>舟橋新二丁目</name>
      </trkpt>
      <trkpt lat="36.0891212" lon="136.1886048" muitiRoute="1">
        <name>海老助町</name>
      </trkpt>
      <trkpt lat="36.1025412" lon="136.1797428" muitiRoute="1">
        <name>南楢原町</name>
      </trkpt>
      <trkpt lat="36.1058091" lon="136.1780906" muitiRoute="1">
        <name>北楢原町</name>
      </trkpt>
      <trkpt lat="36.0994703" lon="136.210725" muitiRoute="1">
        <name>舟橋新一丁目</name>
      </trkpt>
      <trkpt lat="36.0997" lon="136.2132007" muitiRoute="1">
        <name>舟橋黒竜二丁目</name>
      </trkpt>
      <trkpt lat="36.0994161" lon="136.2152204" muitiRoute="1">
        <name>舟橋黒竜一丁目</name>
      </trkpt>
      <trkpt lat="36.0968414" lon="136.2168163" muitiRoute="1">
        <name>灯明寺三丁目</name>
      </trkpt>
      <trkpt lat="36.0977083" lon="136.2236345" muitiRoute="1">
        <name>高木西一丁目</name>
      </trkpt>
      <trkpt lat="36.0985752" lon="136.2259948" muitiRoute="1">
        <name>舟橋一丁目</name>
      </trkpt>
      <trkpt lat="36.0970191" lon="136.2270033" muitiRoute="1">
        <name>高木一丁目</name>
      </trkpt>
      <trkpt lat="36.1012235" lon="136.2242085" muitiRoute="1">
        <name>稲多浜町</name>
      </trkpt>
      <trkpt lat="36.1024111" lon="136.2236828" muitiRoute="1">
        <name>稲多新町</name>
      </trkpt>
      <trkpt lat="36.1020861" lon="136.2258124" muitiRoute="1">
        <name>稲多元町</name>
      </trkpt>
      <trkpt lat="36.1044959" lon="136.2257212" muitiRoute="1">
        <name>古市一丁目</name>
      </trkpt>
      <trkpt lat="36.104938" lon="136.2270114" muitiRoute="1">
        <name>古市三丁目</name>
      </trkpt>
      <trkpt lat="36.1068298" lon="136.2262094" muitiRoute="1">
        <name>古市二丁目</name>
      </trkpt>
      <trkpt lat="36.1081603" lon="136.2264186" muitiRoute="1">
        <name>下森田本町</name>
      </trkpt>
      <trkpt lat="36.105133" lon="136.2241602" muitiRoute="1">
        <name>八重巻東町</name>
      </trkpt>
      <trkpt lat="36.1039238" lon="136.222237" muitiRoute="1">
        <name>八重巻中町</name>
      </trkpt>
      <trkpt lat="36.1074517" lon="136.2209791" muitiRoute="1">
        <name>八重巻町</name>
      </trkpt>
      <trkpt lat="36.1047603" lon="136.21665" muitiRoute="1">
        <name>天池町</name>
      </trkpt>
      <trkpt lat="36.1045652" lon="136.2297553" muitiRoute="1">
        <name>古市町</name>
      </trkpt>
      <trkpt lat="36.1015963" lon="136.2292778" muitiRoute="1">
        <name>舟橋町</name>
      </trkpt>
      <trkpt lat="36.0992752" lon="136.2290606" muitiRoute="1">
        <name>舟橋二丁目</name>
      </trkpt>
      <trkpt lat="36.0985384" lon="136.2299538" muitiRoute="1">
        <name>高木北一丁目</name>
      </trkpt>
      <trkpt lat="36.0987963" lon="136.2324066" muitiRoute="1">
        <name>高木北二丁目</name>
      </trkpt>
      <trkpt lat="36.0979164" lon="136.2344438" muitiRoute="1">
        <name>高木北三丁目</name>
      </trkpt>
      <trkpt lat="36.0976888" lon="136.236088" muitiRoute="1">
        <name>高木北四丁目</name>
      </trkpt>
      <trkpt lat="36.0961955" lon="136.2376302" muitiRoute="1">
        <name>高木北五丁目</name>
      </trkpt>
      <trkpt lat="36.0985622" lon="136.2383652" muitiRoute="1">
        <name>高柳町</name>
      </trkpt>
      <trkpt lat="36.0968154" lon="136.2409562" muitiRoute="1">
        <name>高柳三丁目</name>
      </trkpt>
      <trkpt lat="36.1024111" lon="136.2391055" muitiRoute="1">
        <name>寺前町</name>
      </trkpt>
      <trkpt lat="36.1014489" lon="136.2324536" muitiRoute="1">
        <name>舟橋三丁目</name>
      </trkpt>
      <trkpt lat="36.1075384" lon="136.2305412" muitiRoute="1">
        <name>下森田新町</name>
      </trkpt>
      <trkpt lat="36.1094562" lon="136.2284839" muitiRoute="1">
        <name>下森田藤巻町</name>
      </trkpt>
      <trkpt lat="36.1086956" lon="136.2351465" muitiRoute="1">
        <name>上森田五丁目</name>
      </trkpt>
      <trkpt lat="36.109584" lon="136.2386817" muitiRoute="1">
        <name>上野本町二丁目</name>
      </trkpt>
      <trkpt lat="36.112934" lon="136.2377375" muitiRoute="1">
        <name>上野本町一丁目</name>
      </trkpt>
      <trkpt lat="36.1145245" lon="136.2398618" muitiRoute="1">
        <name>上野本町新</name>
      </trkpt>
      <trkpt lat="36.1153218" lon="136.2412754" muitiRoute="1">
        <name>栗森町浜</name>
      </trkpt>
      <trkpt lat="36.1165872" lon="136.2426138" muitiRoute="1">
        <name>栗森一丁目</name>
      </trkpt>
      <trkpt lat="36.118158" lon="136.241005" muitiRoute="1">
        <name>栗森町</name>
      </trkpt>
      <trkpt lat="36.1188579" lon="136.241042" muitiRoute="1">
        <name>栗森二丁目</name>
      </trkpt>
      <trkpt lat="36.1172806" lon="136.2360692" muitiRoute="1">
        <name>石盛三丁目</name>
      </trkpt>
      <trkpt lat="36.1147325" lon="136.2350982" muitiRoute="1">
        <name>上森田六丁目</name>
      </trkpt>
      <trkpt lat="36.1140608" lon="136.2335908" muitiRoute="1">
        <name>上森田町</name>
      </trkpt>
      <trkpt lat="36.1117141" lon="136.234256" muitiRoute="1">
        <name>上森田四丁目</name>
      </trkpt>
      <trkpt lat="36.1119286" lon="136.2320512" muitiRoute="1">
        <name>上森田三丁目</name>
      </trkpt>
      <trkpt lat="36.1128473" lon="136.2299216" muitiRoute="1">
        <name>上森田二丁目</name>
      </trkpt>
      <trkpt lat="36.1109275" lon="136.2288058" muitiRoute="1">
        <name>下森田桜町</name>
      </trkpt>
      <trkpt lat="36.1113955" lon="136.2270248" muitiRoute="1">
        <name>下森田町</name>
      </trkpt>
      <trkpt lat="36.1136881" lon="136.2267512" muitiRoute="1">
        <name>上森田一丁目</name>
      </trkpt>
      <trkpt lat="36.1162319" lon="136.2285161" muitiRoute="1">
        <name>石盛一丁目</name>
      </trkpt>
      <trkpt lat="36.1191309" lon="136.2279797" muitiRoute="1">
        <name>定正一丁目</name>
      </trkpt>
      <trkpt lat="36.1193259" lon="136.229884" muitiRoute="1">
        <name>定正二丁目</name>
      </trkpt>
      <trkpt lat="36.1169036" lon="136.232534" muitiRoute="1">
        <name>石盛二丁目</name>
      </trkpt>
      <trkpt lat="36.1194343" lon="136.2236559" muitiRoute="1">
        <name>定正町</name>
      </trkpt>
      <trkpt lat="36.1171982" lon="136.2226742" muitiRoute="1">
        <name>石盛町</name>
      </trkpt>
      <trkpt lat="36.1169198" lon="136.2174265" muitiRoute="1">
        <name>つくし野二丁目</name>
      </trkpt>
      <trkpt lat="36.1174257" lon="136.2148958" muitiRoute="1">
        <name>つくし野三丁目</name>
      </trkpt>
      <trkpt lat="36.1194993" lon="136.2163389" muitiRoute="1">
        <name>つくし野一丁目</name>
      </trkpt>
      <trkpt lat="36.1096057" lon="136.2236613" muitiRoute="1">
        <name>栄町</name>
      </trkpt>
      <trkpt lat="36.111799" lon="136.242438" muitiRoute="1">
        <name>上野本町</name>
      </trkpt>
      <trkpt lat="36.1118549" lon="136.2427211" muitiRoute="1">
        <name>上野本町三丁目</name>
      </trkpt>
      <trkpt lat="36.1139264" lon="136.2464333" muitiRoute="1">
        <name>上野本町四丁目</name>
      </trkpt>
      <trkpt lat="36.111784" lon="136.25218" muitiRoute="1">
        <name>漆原町</name>
      </trkpt>
      <trkpt lat="36.1133024" lon="136.2520283" muitiRoute="1">
        <name>東森田一丁目</name>
      </trkpt>
      <trkpt lat="36.1178786" lon="136.2499952" muitiRoute="1">
        <name>東森田二丁目</name>
      </trkpt>
      <trkpt lat="36.118221" lon="136.252329" muitiRoute="1">
        <name>森田新保町</name>
      </trkpt>
      <trkpt lat="36.1185113" lon="136.2535036" muitiRoute="1">
        <name>東森田三丁目</name>
      </trkpt>
      <trkpt lat="36.1202532" lon="136.2503064" muitiRoute="1">
        <name>河合寄安町</name>
      </trkpt>
      <trkpt lat="36.1066759" lon="136.2475812" muitiRoute="1">
        <name>中藤新保町</name>
      </trkpt>
      <trkpt lat="36.1061818" lon="136.2541902" muitiRoute="1">
        <name>新田本町</name>
      </trkpt>
      <trkpt lat="36.1027059" lon="136.2580633" muitiRoute="1">
        <name>中新田町</name>
      </trkpt>
      <trkpt lat="36.0985535" lon="136.2549305" muitiRoute="1">
        <name>大和田町</name>
      </trkpt>
      <trkpt lat="36.097147" lon="136.2509139" muitiRoute="1">
        <name>大和田二丁目</name>
      </trkpt>
      <trkpt lat="36.0958835" lon="136.2447864" muitiRoute="1">
        <name>高柳二丁目</name>
      </trkpt>
      <trkpt lat="36.0920949" lon="136.2482572" muitiRoute="1">
        <name>大和田一丁目</name>
      </trkpt>
      <trkpt lat="36.0873394" lon="136.2489545" muitiRoute="1">
        <name>新保北一丁目</name>
      </trkpt>
      <trkpt lat="36.0847687" lon="136.2540936" muitiRoute="1">
        <name>新保町</name>
      </trkpt>
      <trkpt lat="36.0851329" lon="136.2614965" muitiRoute="1">
        <name>若栄町</name>
      </trkpt>
      <trkpt lat="36.0892512" lon="136.2601232" muitiRoute="1">
        <name>林藤島町</name>
      </trkpt>
      <trkpt lat="36.0902309" lon="136.2679124" muitiRoute="1">
        <name>林町</name>
      </trkpt>
      <trkpt lat="36.088653" lon="136.2724614" muitiRoute="1">
        <name>藤島町</name>
      </trkpt>
      <trkpt lat="36.0885923" lon="136.2760019" muitiRoute="1">
        <name>島橋町</name>
      </trkpt>
      <trkpt lat="36.0868929" lon="136.2771499" muitiRoute="1">
        <name>玄正島町</name>
      </trkpt>
      <trkpt lat="36.0935341" lon="136.275841" muitiRoute="1">
        <name>中ノ郷町</name>
      </trkpt>
      <trkpt lat="36.0941843" lon="136.2706804" muitiRoute="1">
        <name>泉田町</name>
      </trkpt>
      <trkpt lat="36.0995938" lon="136.2736523" muitiRoute="1">
        <name>北野上町</name>
      </trkpt>
      <trkpt lat="36.0998105" lon="136.2666893" muitiRoute="1">
        <name>北野下町</name>
      </trkpt>
      <trkpt lat="36.0968804" lon="136.262505" muitiRoute="1">
        <name>堂島町</name>
      </trkpt>
      <trkpt lat="36.0797917" lon="136.2846815" muitiRoute="1">
        <name>重立町</name>
      </trkpt>
      <trkpt lat="36.0695852" lon="136.2779331" muitiRoute="1">
        <name>坂下町</name>
      </trkpt>
      <trkpt lat="36.0735657" lon="136.2722254" muitiRoute="1">
        <name>堅達町</name>
      </trkpt>
      <trkpt lat="36.0784477" lon="136.2702727" muitiRoute="1">
        <name>原目町</name>
      </trkpt>
      <trkpt lat="36.0817166" lon="136.2690067" muitiRoute="1">
        <name>上中町</name>
      </trkpt>
      <trkpt lat="36.0820895" lon="136.2762916" muitiRoute="1">
        <name>間山町</name>
      </trkpt>
      <trkpt lat="36.0772857" lon="136.2615824" muitiRoute="1">
        <name>下中町</name>
      </trkpt>
      <trkpt lat="36.0710205" lon="136.2590665" muitiRoute="1">
        <name>北今泉町</name>
      </trkpt>
      <trkpt lat="36.0683451" lon="136.2608635" muitiRoute="1">
        <name>東今泉町</name>
      </trkpt>
      <trkpt lat="36.0665326" lon="136.2621295" muitiRoute="1">
        <name>今泉町</name>
      </trkpt>
      <trkpt lat="36.0632196" lon="136.2642538" muitiRoute="1">
        <name>殿下町</name>
      </trkpt>
      <trkpt lat="36.0636273" lon="136.2679553" muitiRoute="1">
        <name>寮町</name>
      </trkpt>
      <trkpt lat="36.0585622" lon="136.2608957" muitiRoute="1">
        <name>印田町</name>
      </trkpt>
      <trkpt lat="36.0584798" lon="136.2562448" muitiRoute="1">
        <name>フェア河増一丁目</name>
      </trkpt>
      <trkpt lat="36.0572698" lon="136.2563091" muitiRoute="1">
        <name>フェア河増二丁目</name>
      </trkpt>
      <trkpt lat="36.0563374" lon="136.2516904" muitiRoute="1">
        <name>問屋町一丁目</name>
      </trkpt>
      <trkpt lat="36.0569185" lon="136.2474686" muitiRoute="1">
        <name>成和二丁目</name>
      </trkpt>
      <trkpt lat="36.0591801" lon="136.2492201" muitiRoute="1">
        <name>上北野二丁目</name>
      </trkpt>
      <trkpt lat="36.0617561" lon="136.2507865" muitiRoute="1">
        <name>上北野一丁目</name>
      </trkpt>
      <trkpt lat="36.0643753" lon="136.2509608" muitiRoute="1">
        <name>大東一丁目</name>
      </trkpt>
      <trkpt lat="36.0663266" lon="136.2493247" muitiRoute="1">
        <name>大東二丁目</name>
      </trkpt>
      <trkpt lat="36.0684687" lon="136.2492067" muitiRoute="1">
        <name>大東三丁目</name>
      </trkpt>
      <trkpt lat="36.070486" lon="136.2485548" muitiRoute="1">
        <name>北四ツ居町</name>
      </trkpt>
      <trkpt lat="36.070801" lon="136.247755" muitiRoute="1">
        <name>円山二丁目</name>
      </trkpt>
      <trkpt lat="36.0712503" lon="136.245752" muitiRoute="1">
        <name>円山一丁目</name>
      </trkpt>
      <trkpt lat="36.0682497" lon="136.2454247" muitiRoute="1">
        <name>北四ツ居三丁目</name>
      </trkpt>
      <trkpt lat="36.0661987" lon="136.2453121" muitiRoute="1">
        <name>北四ツ居二丁目</name>
      </trkpt>
      <trkpt lat="36.0644381" lon="136.2453496" muitiRoute="1">
        <name>北四ツ居一丁目</name>
      </trkpt>
      <trkpt lat="36.0619837" lon="136.2448668" muitiRoute="1">
        <name>南四ツ居一丁目</name>
      </trkpt>
      <trkpt lat="36.0605874" lon="136.2446778" muitiRoute="1">
        <name>南四ツ居二丁目</name>
      </trkpt>
      <trkpt lat="36.0612769" lon="136.2552094" muitiRoute="1">
        <name>河増町</name>
      </trkpt>
      <trkpt lat="36.0693251" lon="136.2518513" muitiRoute="1">
        <name>南四ツ居町</name>
      </trkpt>
      <trkpt lat="36.0744328" lon="136.2467471" muitiRoute="1">
        <name>丸山二丁目</name>
      </trkpt>
      <trkpt lat="36.0763297" lon="136.2496385" muitiRoute="1">
        <name>丸山三丁目</name>
      </trkpt>
      <trkpt lat="36.0769302" lon="136.2513363" muitiRoute="1">
        <name>丸山町</name>
      </trkpt>
      <trkpt lat="36.0802036" lon="136.2503332" muitiRoute="1">
        <name>新保二丁目</name>
      </trkpt>
      <trkpt lat="36.0816082" lon="136.2525594" muitiRoute="1">
        <name>新保三丁目</name>
      </trkpt>
      <trkpt lat="36.0806328" lon="136.2474096" muitiRoute="1">
        <name>新保一丁目</name>
      </trkpt>
      <trkpt lat="36.0263948" lon="136.2464976" muitiRoute="1">
        <name>上六条町</name>
      </trkpt>
      <trkpt lat="36.0198001" lon="136.2449419" muitiRoute="1">
        <name>下細江町</name>
      </trkpt>
      <trkpt lat="36.014897" lon="136.2454677" muitiRoute="1">
        <name>上細江町</name>
      </trkpt>
      <trkpt lat="36.0088828" lon="136.2482357" muitiRoute="1">
        <name>徳光町</name>
      </trkpt>
      <trkpt lat="36.0066871" lon="136.2564647" muitiRoute="1">
        <name>田中町</name>
      </trkpt>
      <trkpt lat="36.0045259" lon="136.2596083" muitiRoute="1">
        <name>岩倉町</name>
      </trkpt>
      <trkpt lat="36.0021651" lon="136.2556386" muitiRoute="1">
        <name>田治島町</name>
      </trkpt>
      <trkpt lat="36.0133176" lon="136.259855" muitiRoute="1">
        <name>上東郷町</name>
      </trkpt>
      <trkpt lat="36.0188282" lon="136.2565935" muitiRoute="1">
        <name>円成寺町</name>
      </trkpt>
      <trkpt lat="36.0211711" lon="136.2611961" muitiRoute="1">
        <name>下東郷町</name>
      </trkpt>
      <trkpt lat="36.0240433" lon="136.2572586" muitiRoute="1">
        <name>東郷中島町</name>
      </trkpt>
      <trkpt lat="36.0206158" lon="136.2690282" muitiRoute="1">
        <name>下毘沙門町</name>
      </trkpt>
      <trkpt lat="36.017418" lon="136.2705517" muitiRoute="1">
        <name>東郷二ケ町</name>
      </trkpt>
      <trkpt lat="36.0175959" lon="136.2758732" muitiRoute="1">
        <name>小路町</name>
      </trkpt>
      <trkpt lat="36.0154394" lon="136.2770883" muitiRoute="1">
        <name>安原町</name>
      </trkpt>
      <trkpt lat="36.0228025" lon="136.2741244" muitiRoute="1">
        <name>中毘沙門町</name>
      </trkpt>
      <trkpt lat="36.005216" lon="136.2728423" muitiRoute="1">
        <name>栃泉町</name>
      </trkpt>
      <trkpt lat="36.0010541" lon="136.2703478" muitiRoute="1">
        <name>深見町</name>
      </trkpt>
      <trkpt lat="35.9886412" lon="136.2663245" muitiRoute="1">
        <name>東大味町</name>
      </trkpt>
      <trkpt lat="35.9874345" lon="136.2549949" muitiRoute="1">
        <name>西大味町</name>
      </trkpt>
      <trkpt lat="35.9896569" lon="136.2468088" muitiRoute="1">
        <name>生部町</name>
      </trkpt>
      <trkpt lat="35.9920528" lon="136.2392557" muitiRoute="1">
        <name>西袋町</name>
      </trkpt>
      <trkpt lat="35.9972263" lon="136.2436223" muitiRoute="1">
        <name>大村町</name>
      </trkpt>
      <trkpt lat="36.001193" lon="136.2380433" muitiRoute="1">
        <name>北山町</name>
      </trkpt>
      <trkpt lat="35.9942142" lon="136.2183022" muitiRoute="1">
        <name>角原町</name>
      </trkpt>
      <trkpt lat="35.9890058" lon="136.2133026" muitiRoute="1">
        <name>生野町</name>
      </trkpt>
      <trkpt lat="36.0019568" lon="136.210674" muitiRoute="1">
        <name>鉾ケ崎町</name>
      </trkpt>
      <trkpt lat="36.0091345" lon="136.2131738" muitiRoute="1">
        <name>大土呂町</name>
      </trkpt>
      <trkpt lat="36.0079021" lon="136.2178945" muitiRoute="1">
        <name>半田町</name>
      </trkpt>
      <trkpt lat="36.0040052" lon="136.2229264" muitiRoute="1">
        <name>二上町</name>
      </trkpt>
      <trkpt lat="36.0052463" lon="136.2334192" muitiRoute="1">
        <name>帆谷町</name>
      </trkpt>
      <trkpt lat="36.0110786" lon="136.2331939" muitiRoute="1">
        <name>太田町</name>
      </trkpt>
      <trkpt lat="36.0151747" lon="136.2324643" muitiRoute="1">
        <name>上河北町</name>
      </trkpt>
      <trkpt lat="36.0177434" lon="136.2239778" muitiRoute="1">
        <name>下河北町</name>
      </trkpt>
      <trkpt lat="36.0141768" lon="136.2205553" muitiRoute="1">
        <name>新開町</name>
      </trkpt>
      <trkpt lat="36.025449" lon="136.2224328" muitiRoute="1">
        <name>下莇生田町</name>
      </trkpt>
      <trkpt lat="36.0239999" lon="136.2304151" muitiRoute="1">
        <name>上莇生田町</name>
      </trkpt>
      <trkpt lat="36.0270976" lon="136.2389231" muitiRoute="1">
        <name>天王町</name>
      </trkpt>
      <trkpt lat="36.0042569" lon="136.2406826" muitiRoute="1">
        <name>北山新保町</name>
      </trkpt>
      <trkpt lat="36.0030765" lon="136.2024289" muitiRoute="1">
        <name>浅水三ケ町</name>
      </trkpt>
      <trkpt lat="36.0035973" lon="136.1997306" muitiRoute="1">
        <name>真木町</name>
      </trkpt>
      <trkpt lat="36.006405" lon="136.1996609" muitiRoute="1">
        <name>浅水町</name>
      </trkpt>
      <trkpt lat="36.0043524" lon="136.1956644" muitiRoute="1">
        <name>浅水二日町</name>
      </trkpt>
      <trkpt lat="36.0032674" lon="136.1900076" muitiRoute="1">
        <name>中野三丁目</name>
      </trkpt>
      <trkpt lat="36.0044478" lon="136.1873603" muitiRoute="1">
        <name>中野町</name>
      </trkpt>
      <trkpt lat="36.0029636" lon="136.1860836" muitiRoute="1">
        <name>中野二丁目</name>
      </trkpt>
      <trkpt lat="36.0102714" lon="136.1864698" muitiRoute="1">
        <name>冬野町</name>
      </trkpt>
      <trkpt lat="36.0106793" lon="136.1977994" muitiRoute="1">
        <name>安保町</name>
      </trkpt>
      <trkpt lat="36.0129705" lon="136.202327" muitiRoute="1">
        <name>今市町</name>
      </trkpt>
      <trkpt lat="36.0193141" lon="136.2041187" muitiRoute="1">
        <name>中荒井町</name>
      </trkpt>
      <trkpt lat="36.0234012" lon="136.2028956" muitiRoute="1">
        <name>引目町</name>
      </trkpt>
      <trkpt lat="36.0251887" lon="136.2080669" muitiRoute="1">
        <name>下荒井町</name>
      </trkpt>
      <trkpt lat="36.019236" lon="136.1919522" muitiRoute="1">
        <name>杉谷町</name>
      </trkpt>
      <trkpt lat="36.0237656" lon="136.1836266" muitiRoute="1">
        <name>合谷町</name>
      </trkpt>
      <trkpt lat="36.0273232" lon="136.1806306" muitiRoute="1">
        <name>江守の里二丁目</name>
      </trkpt>
      <trkpt lat="36.0013232" lon="136.1840934" muitiRoute="1">
        <name>中野一丁目</name>
      </trkpt>
      <trkpt lat="35.9993442" lon="136.1898708" muitiRoute="1">
        <name>三十八社町</name>
      </trkpt>
      <trkpt lat="35.9948826" lon="136.1903429" muitiRoute="1">
        <name>下江尻町</name>
      </trkpt>
      <trkpt lat="35.9930163" lon="136.1878055" muitiRoute="1">
        <name>江尻ケ丘町</name>
      </trkpt>
      <trkpt lat="35.9915667" lon="136.1904395" muitiRoute="1">
        <name>上江尻町</name>
      </trkpt>
      <trkpt lat="35.9938236" lon="136.1985075" muitiRoute="1">
        <name>森行町</name>
      </trkpt>
      <trkpt lat="35.9920181" lon="136.2006748" muitiRoute="1">
        <name>末広町</name>
      </trkpt>
      <trkpt lat="35.9910458" lon="136.2035394" muitiRoute="1">
        <name>主計中町</name>
      </trkpt>
      <trkpt lat="35.9884849" lon="136.207155" muitiRoute="1">
        <name>三本木町</name>
      </trkpt>
      <trkpt lat="35.9826771" lon="136.2072837" muitiRoute="1">
        <name>徳尾町</name>
      </trkpt>
      <trkpt lat="36.0010107" lon="136.1704087" muitiRoute="1">
        <name>花守町</name>
      </trkpt>
      <trkpt lat="36.0013059" lon="136.1469555" muitiRoute="1">
        <name>甑谷町</name>
      </trkpt>
      <trkpt lat="36.0098722" lon="136.1480927" muitiRoute="1">
        <name>真栗町</name>
      </trkpt>
      <trkpt lat="36.0190538" lon="136.1483502" muitiRoute="1">
        <name>御油町</name>
      </trkpt>
      <trkpt lat="36.0149318" lon="136.1599803" muitiRoute="1">
        <name>清水山町</name>
      </trkpt>
      <trkpt lat="36.0271583" lon="136.1678445" muitiRoute="1">
        <name>片山町</name>
      </trkpt>
      <trkpt lat="36.0167975" lon="136.1721682" muitiRoute="1">
        <name>南居町</name>
      </trkpt>
      <trkpt lat="36.0037622" lon="136.1655164" muitiRoute="1">
        <name>三尾野町</name>
      </trkpt>
      <trkpt lat="35.9948479" lon="136.1419129" muitiRoute="1">
        <name>在田町</name>
      </trkpt>
      <trkpt lat="36.0093255" lon="136.1395955" muitiRoute="1">
        <name>坪谷町</name>
      </trkpt>
      <trkpt lat="36.0239999" lon="136.1427283" muitiRoute="1">
        <name>島寺町</name>
      </trkpt>
      <trkpt lat="36.0284078" lon="136.1388552" muitiRoute="1">
        <name>風巻町</name>
      </trkpt>
      <trkpt lat="36.0241301" lon="136.1213887" muitiRoute="1">
        <name>大森町</name>
      </trkpt>
      <trkpt lat="36.0206461" lon="136.1166304" muitiRoute="1">
        <name>加茂町</name>
      </trkpt>
      <trkpt lat="36.0194356" lon="136.1120331" muitiRoute="1">
        <name>加茂内町</name>
      </trkpt>
      <trkpt lat="36.0147756" lon="136.1175799" muitiRoute="1">
        <name>山内町</name>
      </trkpt>
      <trkpt lat="36.0143416" lon="136.1198813" muitiRoute="1">
        <name>志津が丘三丁目</name>
      </trkpt>
      <trkpt lat="36.0131422" lon="136.1213897" muitiRoute="1">
        <name>志津が丘四丁目</name>
      </trkpt>
      <trkpt lat="36.0176133" lon="136.122188" muitiRoute="1">
        <name>志津が丘一丁目</name>
      </trkpt>
      <trkpt lat="36.0173226" lon="136.123969" muitiRoute="1">
        <name>志津が丘二丁目</name>
      </trkpt>
      <trkpt lat="36.0222992" lon="136.1097693" muitiRoute="1">
        <name>滝波町</name>
      </trkpt>
      <trkpt lat="36.0116513" lon="136.1051023" muitiRoute="1">
        <name>笹谷町</name>
      </trkpt>
      <trkpt lat="36.033978" lon="136.1031926" muitiRoute="1">
        <name>清水畑町</name>
      </trkpt>
      <trkpt lat="36.038663" lon="136.1093187" muitiRoute="1">
        <name>平尾町</name>
      </trkpt>
      <trkpt lat="36.0471385" lon="136.1112606" muitiRoute="1">
        <name>末町</name>
      </trkpt>
      <trkpt lat="36.0549106" lon="136.1181056" muitiRoute="1">
        <name>更毛町</name>
      </trkpt>
      <trkpt lat="36.0500011" lon="136.1417144" muitiRoute="1">
        <name>和田町</name>
      </trkpt>
      <trkpt lat="36.0425669" lon="136.1417198" muitiRoute="1">
        <name>下天下町</name>
      </trkpt>
      <trkpt lat="36.0379082" lon="136.1362588" muitiRoute="1">
        <name>上天下町</name>
      </trkpt>
      <trkpt lat="36.0322688" lon="136.140604" muitiRoute="1">
        <name>小羽町</name>
      </trkpt>
      <trkpt lat="36.0309674" lon="136.114254" muitiRoute="1">
        <name>本折町</name>
      </trkpt>
      <trkpt lat="36.0876386" lon="136.1197686" muitiRoute="1">
        <name>河内町</name>
      </trkpt>
      <trkpt lat="36.0972619" lon="136.1110997" muitiRoute="1">
        <name>清水平町</name>
      </trkpt>
      <trkpt lat="36.0987009" lon="136.1258519" muitiRoute="1">
        <name>西荒井町</name>
      </trkpt>
      <trkpt lat="36.1008681" lon="136.1366343" muitiRoute="1">
        <name>一王寺町</name>
      </trkpt>
      <trkpt lat="36.1018477" lon="136.1404753" muitiRoute="1">
        <name>中町</name>
      </trkpt>
      <trkpt lat="36.0981981" lon="136.1435115" muitiRoute="1">
        <name>木米町</name>
      </trkpt>
      <trkpt lat="36.0935774" lon="136.1394775" muitiRoute="1">
        <name>中河内町</name>
      </trkpt>
      <trkpt lat="36.1370862" lon="136.1554098" muitiRoute="1">
        <name>浄土寺町</name>
      </trkpt>
      <trkpt lat="36.1404481" lon="136.1472237" muitiRoute="1">
        <name>上野町</name>
      </trkpt>
      <trkpt lat="36.1460797" lon="136.1471915" muitiRoute="1">
        <name>砂子坂町</name>
      </trkpt>
      <trkpt lat="36.1496404" lon="136.1511505" muitiRoute="1">
        <name>池尻町</name>
      </trkpt>
      <trkpt lat="36.145014" lon="136.1530602" muitiRoute="1">
        <name>西中野町</name>
      </trkpt>
      <trkpt lat="36.1473446" lon="136.1564827" muitiRoute="1">
        <name>黒丸城町</name>
      </trkpt>
      <trkpt lat="36.1478904" lon="136.1603665" muitiRoute="1">
        <name>三宅町</name>
      </trkpt>
      <trkpt lat="36.1446328" lon="136.1617505" muitiRoute="1">
        <name>布施田町</name>
      </trkpt>
      <trkpt lat="36.154561" lon="136.1490583" muitiRoute="1">
        <name>波寄町</name>
      </trkpt>
      <trkpt lat="36.1582339" lon="136.1549485" muitiRoute="1">
        <name>小尉町</name>
      </trkpt>
      <trkpt lat="36.1614736" lon="136.1550021" muitiRoute="1">
        <name>昭和新町</name>
      </trkpt>
      <trkpt lat="36.161924" lon="136.1495089" muitiRoute="1">
        <name>砂子田町</name>
      </trkpt>
      <trkpt lat="36.0146974" lon="135.9970736" muitiRoute="1">
        <name>浜北山町</name>
      </trkpt>
      <trkpt lat="36.0105752" lon="135.9898424" muitiRoute="1">
        <name>居倉町</name>
      </trkpt>
      <trkpt lat="36.0012364" lon="135.9862912" muitiRoute="1">
        <name>赤坂町</name>
      </trkpt>
      <trkpt lat="35.99661" lon="135.9814525" muitiRoute="1">
        <name>城有町</name>
      </trkpt>
      <trkpt lat="35.9969746" lon="135.9763563" muitiRoute="1">
        <name>八ツ俣町</name>
      </trkpt>
      <trkpt lat="35.9824166" lon="136.280905" muitiRoute="1">
        <name>鹿俣町</name>
      </trkpt>
      <trkpt lat="35.9857243" lon="136.2943911" muitiRoute="1">
        <name>浄教寺町</name>
      </trkpt>
      <trkpt lat="35.9890492" lon="136.2924814" muitiRoute="1">
        <name>東新町</name>
      </trkpt>
      <trkpt lat="35.9947958" lon="136.2875461" muitiRoute="1">
        <name>西新町</name>
      </trkpt>
    </trkseg>
    <extensions>
      <stats>
        <totalDistanceKm>584.49</totalDistanceKm>
        <pointCount>747</pointCount>
      </stats>
    </extensions>
  </trk>
</gpx>