<?xml version="1.0" encoding="UTF-8"?>
<gpx version="1.1" creator="RouteOptimizer" xmlns="http://www.topografix.com/GPX/1/1">
  <metadata>
    <time>2025-11-22T16:42:21Z</time>
    <name>福井市</name>
  </metadata>
  <trk>
    <trkseg>
      <trkpt lat="35.9609785" lon="136.3465977">
        <name>赤谷町</name>
        <desc>赤谷町, 福井市, 福井県, 916-1235, 日本</desc>
        <extensions>
          <quarter>赤谷町</quarter>
          <city>福井市</city>
          <province>福井県</province>
          <ISO3166-2-lvl4>JP-18</ISO3166-2-lvl4>
          <postcode>916-1235</postcode>
          <country>日本</country>
          <country_code>jp</country_code>
        </extensions>
      </trkpt>
      <trkpt lat="35.9473433" lon="136.351093">
        <name>折立町</name>
        <desc>折立町, 福井市, 福井県, 日本</desc>
        <extensions>
          <quarter>折立町</quarter>
          <city>福井市</city>
          <province>福井県</province>
          <ISO3166-2-lvl4>JP-18</ISO3166-2-lvl4>
          <country>日本</country>
          <country_code>jp</country_code>
        </extensions>
      </trkpt>
      <trkpt lat="35.9494712" lon="136.3576054">
        <name>横越町</name>
        <desc>横越町, 福井市, 福井県, 日本</desc>
        <extensions>
          <quarter>横越町</quarter>
          <city>福井市</city>
          <province>福井県</province>
          <ISO3166-2-lvl4>JP-18</ISO3166-2-lvl4>
          <country>日本</country>
          <country_code>jp</country_code>
        </extensions>
      </trkpt>
      <trkpt lat="35.9574266" lon="136.3683343">
        <name>東河原町</name>
        <desc>東河原町, 福井市, 福井県, 日本</desc>
        <extensions>
          <quarter>東河原町</quarter>
          <city>福井市</city>
          <province>福井県</province>
          <ISO3166-2-lvl4>JP-18</ISO3166-2-lvl4>
          <country>日本</country>
          <country_code>jp</country_code>
        </extensions>
      </trkpt>
      <trkpt lat="35.9628629" lon="136.3677227">
        <name>西河原町</name>
        <desc>武生美山線, 西河原町, 福井市, 福井県, 日本</desc>
        <extensions>
          <road>武生美山線</road>
          <quarter>西河原町</quarter>
          <city>福井市</city>
          <province>福井県</province>
          <ISO3166-2-lvl4>JP-18</ISO3166-2-lvl4>
          <country>日本</country>
          <country_code>jp</country_code>
        </extensions>
      </trkpt>
      <trkpt lat="35.9633058" lon="136.3950491">
        <name>西市布町</name>
        <desc>国道476号, 西市布町, 福井市, 福井県, 日本</desc>
        <extensions>
          <road>国道476号</road>
          <quarter>西市布町</quarter>
          <city>福井市</city>
          <province>福井県</province>
          <ISO3166-2-lvl4>JP-18</ISO3166-2-lvl4>
          <country>日本</country>
          <country_code>jp</country_code>
        </extensions>
      </trkpt>
      <trkpt lat="35.9635055" lon="136.403203">
        <name>小当見町</name>
        <desc>小当見町, 福井市, 福井県, 日本</desc>
        <extensions>
          <quarter>小当見町</quarter>
          <city>福井市</city>
          <province>福井県</province>
          <ISO3166-2-lvl4>JP-18</ISO3166-2-lvl4>
          <country>日本</country>
          <country_code>jp</country_code>
        </extensions>
      </trkpt>
      <trkpt lat="35.9606746" lon="136.4163458">
        <name>中手町</name>
        <desc>中手町, 福井市, 福井県, 日本</desc>
        <extensions>
          <quarter>中手町</quarter>
          <city>福井市</city>
          <province>福井県</province>
          <ISO3166-2-lvl4>JP-18</ISO3166-2-lvl4>
          <country>日本</country>
          <country_code>jp</country_code>
        </extensions>
      </trkpt>
      <trkpt lat="35.9663625" lon="136.4246392">
        <name>南野津又町</name>
        <desc>南野津又町, 福井市, 福井県, 日本</desc>
        <extensions>
          <quarter>南野津又町</quarter>
          <city>福井市</city>
          <province>福井県</province>
          <ISO3166-2-lvl4>JP-18</ISO3166-2-lvl4>
          <country>日本</country>
          <country_code>jp</country_code>
        </extensions>
      </trkpt>
      <trkpt lat="35.9549949" lon="136.4317095">
        <name>神当部町</name>
        <desc>神当部町, 福井市, 福井県, 日本</desc>
        <extensions>
          <quarter>神当部町</quarter>
          <city>福井市</city>
          <province>福井県</province>
          <ISO3166-2-lvl4>JP-18</ISO3166-2-lvl4>
          <country>日本</country>
          <country_code>jp</country_code>
        </extensions>
      </trkpt>
      <trkpt lat="35.948429" lon="136.4405823">
        <name>味見河内町</name>
        <desc>味見河内町, 福井市, 福井県, 912-0071, 日本</desc>
        <extensions>
          <quarter>味見河内町</quarter>
          <city>福井市</city>
          <province>福井県</province>
          <ISO3166-2-lvl4>JP-18</ISO3166-2-lvl4>
          <postcode>912-0071</postcode>
          <country>日本</country>
          <country_code>jp</country_code>
        </extensions>
      </trkpt>
      <trkpt lat="35.982243" lon="136.430819">
        <name>南西俣町</name>
        <desc>南西俣町, 福井市, 福井県, 日本</desc>
        <extensions>
          <quarter>南西俣町</quarter>
          <city>福井市</city>
          <province>福井県</province>
          <ISO3166-2-lvl4>JP-18</ISO3166-2-lvl4>
          <country>日本</country>
          <country_code>jp</country_code>
        </extensions>
      </trkpt>
      <trkpt lat="35.986306" lon="136.4359259">
        <name>東俣町</name>
        <desc>東俣町, 福井市, 福井県, 912-0071, 日本</desc>
        <extensions>
          <quarter>東俣町</quarter>
          <city>福井市</city>
          <province>福井県</province>
          <ISO3166-2-lvl4>JP-18</ISO3166-2-lvl4>
          <postcode>912-0071</postcode>
          <country>日本</country>
          <country_code>jp</country_code>
        </extensions>
      </trkpt>
      <trkpt lat="35.9995612" lon="136.4338016">
        <name>計石町</name>
        <desc>計石町, 福井市, 福井県, 912-0071, 日本</desc>
        <extensions>
          <quarter>計石町</quarter>
          <city>福井市</city>
          <province>福井県</province>
          <ISO3166-2-lvl4>JP-18</ISO3166-2-lvl4>
          <postcode>912-0071</postcode>
          <country>日本</country>
          <country_code>jp</country_code>
        </extensions>
      </trkpt>
      <trkpt lat="35.9942229" lon="136.4156806">
        <name>南宮地町</name>
        <desc>南宮地町, 福井市, 福井県, 日本</desc>
        <extensions>
          <quarter>南宮地町</quarter>
          <city>福井市</city>
          <province>福井県</province>
          <ISO3166-2-lvl4>JP-18</ISO3166-2-lvl4>
          <country>日本</country>
          <country_code>jp</country_code>
        </extensions>
      </trkpt>
      <trkpt lat="35.9931205" lon="136.444906">
        <name>東川上町</name>
        <desc>大宮-犬山バイパス, 東川上町, 福井市, 福井県, 912-0071, 日本</desc>
        <extensions>
          <road>大宮-犬山バイパス</road>
          <quarter>東川上町</quarter>
          <city>福井市</city>
          <province>福井県</province>
          <ISO3166-2-lvl4>JP-18</ISO3166-2-lvl4>
          <postcode>912-0071</postcode>
          <country>日本</country>
          <country_code>jp</country_code>
        </extensions>
      </trkpt>
      <trkpt lat="36.0047256" lon="136.4316559">
        <name>野波町</name>
        <desc>野波町, 福井市, 福井県, 日本</desc>
        <extensions>
          <quarter>野波町</quarter>
          <city>福井市</city>
          <province>福井県</province>
          <ISO3166-2-lvl4>JP-18</ISO3166-2-lvl4>
          <country>日本</country>
          <country_code>jp</country_code>
        </extensions>
      </trkpt>
      <trkpt lat="36.0015402" lon="136.4140069">
        <name>大宮町</name>
        <desc>大宮町, 福井市, 福井県, 日本</desc>
        <extensions>
          <quarter>大宮町</quarter>
          <city>福井市</city>
          <province>福井県</province>
          <ISO3166-2-lvl4>JP-18</ISO3166-2-lvl4>
          <country>日本</country>
          <country_code>jp</country_code>
        </extensions>
      </trkpt>
      <trkpt lat="36.0291627" lon="136.4215493">
        <name>所谷町</name>
        <desc>篠尾勝山線, 所谷町, 福井市, 福井県, 日本</desc>
        <extensions>
          <road>篠尾勝山線</road>
          <quarter>所谷町</quarter>
          <city>福井市</city>
          <province>福井県</province>
          <ISO3166-2-lvl4>JP-18</ISO3166-2-lvl4>
          <country>日本</country>
          <country_code>jp</country_code>
        </extensions>
      </trkpt>
      <trkpt lat="36.0291019" lon="136.4285016">
        <name>皿谷町</name>
        <desc>篠尾勝山線, 皿谷町, 福井市, 福井県, 日本</desc>
        <extensions>
          <road>篠尾勝山線</road>
          <quarter>皿谷町</quarter>
          <city>福井市</city>
          <province>福井県</province>
          <ISO3166-2-lvl4>JP-18</ISO3166-2-lvl4>
          <country>日本</country>
          <country_code>jp</country_code>
        </extensions>
      </trkpt>
      <trkpt lat="36.0287028" lon="136.4045334">
        <name>西中町</name>
        <desc>篠尾勝山線, 西中町, 福井市, 福井県, 日本</desc>
        <extensions>
          <road>篠尾勝山線</road>
          <quarter>西中町</quarter>
          <city>福井市</city>
          <province>福井県</province>
          <ISO3166-2-lvl4>JP-18</ISO3166-2-lvl4>
          <country>日本</country>
          <country_code>jp</country_code>
        </extensions>
      </trkpt>
      <trkpt lat="36.0290933" lon="136.3966584">
        <name>美山大谷町</name>
        <desc>美山大谷町, 福井市, 福井県, 910-1228, 日本</desc>
        <extensions>
          <quarter>美山大谷町</quarter>
          <city>福井市</city>
          <province>福井県</province>
          <ISO3166-2-lvl4>JP-18</ISO3166-2-lvl4>
          <postcode>910-1228</postcode>
          <country>日本</country>
          <country_code>jp</country_code>
        </extensions>
      </trkpt>
      <trkpt lat="36.0279566" lon="136.3898349">
        <name>篭谷町</name>
        <desc>篭谷町, 福井市, 福井県, 910-1228, 日本</desc>
        <extensions>
          <quarter>篭谷町</quarter>
          <city>福井市</city>
          <province>福井県</province>
          <ISO3166-2-lvl4>JP-18</ISO3166-2-lvl4>
          <postcode>910-1228</postcode>
          <country>日本</country>
          <country_code>jp</country_code>
        </extensions>
      </trkpt>
      <trkpt lat="36.021579" lon="136.3778829">
        <name>吉山町</name>
        <desc>篠尾勝山線, 吉山町, 福井市, 福井県, 910-1228, 日本</desc>
        <extensions>
          <road>篠尾勝山線</road>
          <quarter>吉山町</quarter>
          <city>福井市</city>
          <province>福井県</province>
          <ISO3166-2-lvl4>JP-18</ISO3166-2-lvl4>
          <postcode>910-1228</postcode>
          <country>日本</country>
          <country_code>jp</country_code>
        </extensions>
      </trkpt>
      <trkpt lat="36.0081885" lon="136.3852966">
        <name>薬師町</name>
        <desc>国道158号, 薬師町, 福井市, 福井県, 日本</desc>
        <extensions>
          <road>国道158号</road>
          <quarter>薬師町</quarter>
          <city>福井市</city>
          <province>福井県</province>
          <ISO3166-2-lvl4>JP-18</ISO3166-2-lvl4>
          <country>日本</country>
          <country_code>jp</country_code>
        </extensions>
      </trkpt>
      <trkpt lat="36.0127535" lon="136.4003169">
        <name>仁位町</name>
        <desc>仁位町, 福井市, 福井県, 日本</desc>
        <extensions>
          <quarter>仁位町</quarter>
          <city>福井市</city>
          <province>福井県</province>
          <ISO3166-2-lvl4>JP-18</ISO3166-2-lvl4>
          <country>日本</country>
          <country_code>jp</country_code>
        </extensions>
      </trkpt>
      <trkpt lat="36.0036667" lon="136.4060783">
        <name>縫原町</name>
        <desc>縫原町, 福井市, 福井県, 日本</desc>
        <extensions>
          <quarter>縫原町</quarter>
          <city>福井市</city>
          <province>福井県</province>
          <ISO3166-2-lvl4>JP-18</ISO3166-2-lvl4>
          <country>日本</country>
          <country_code>jp</country_code>
        </extensions>
      </trkpt>
      <trkpt lat="35.9880422" lon="136.3919699">
        <name>間戸町</name>
        <desc>間戸町, 福井市, 福井県, 日本</desc>
        <extensions>
          <quarter>間戸町</quarter>
          <city>福井市</city>
          <province>福井県</province>
          <ISO3166-2-lvl4>JP-18</ISO3166-2-lvl4>
          <country>日本</country>
          <country_code>jp</country_code>
        </extensions>
      </trkpt>
      <trkpt lat="35.9922872" lon="136.3745355">
        <name>椙谷町</name>
        <desc>椙谷町, 福井市, 福井県, 日本</desc>
        <extensions>
          <quarter>椙谷町</quarter>
          <city>福井市</city>
          <province>福井県</province>
          <ISO3166-2-lvl4>JP-18</ISO3166-2-lvl4>
          <country>日本</country>
          <country_code>jp</country_code>
        </extensions>
      </trkpt>
      <trkpt lat="35.99036" lon="136.3682914">
        <name>小宇坂町</name>
        <desc>小宇坂町, 福井市, 福井県, 日本</desc>
        <extensions>
          <quarter>小宇坂町</quarter>
          <city>福井市</city>
          <province>福井県</province>
          <ISO3166-2-lvl4>JP-18</ISO3166-2-lvl4>
          <country>日本</country>
          <country_code>jp</country_code>
        </extensions>
      </trkpt>
      <trkpt lat="35.9913844" lon="136.3611889">
        <name>小宇坂島町</name>
        <desc>小宇坂島町, 福井市, 福井県, 日本</desc>
        <extensions>
          <quarter>小宇坂島町</quarter>
          <city>福井市</city>
          <province>福井県</province>
          <ISO3166-2-lvl4>JP-18</ISO3166-2-lvl4>
          <country>日本</country>
          <country_code>jp</country_code>
        </extensions>
      </trkpt>
      <trkpt lat="35.9881638" lon="136.3571119">
        <name>蔵作町</name>
        <desc>蔵作町, 福井市, 福井県, 日本</desc>
        <extensions>
          <quarter>蔵作町</quarter>
          <city>福井市</city>
          <province>福井県</province>
          <ISO3166-2-lvl4>JP-18</ISO3166-2-lvl4>
          <country>日本</country>
          <country_code>jp</country_code>
        </extensions>
      </trkpt>
      <trkpt lat="35.9980422" lon="136.356318">
        <name>朝谷町</name>
        <desc>朝谷町, 福井市, 福井県, 日本</desc>
        <extensions>
          <quarter>朝谷町</quarter>
          <city>福井市</city>
          <province>福井県</province>
          <ISO3166-2-lvl4>JP-18</ISO3166-2-lvl4>
          <country>日本</country>
          <country_code>jp</country_code>
        </extensions>
      </trkpt>
      <trkpt lat="35.9999692" lon="136.3636565">
        <name>美山町</name>
        <desc>国道158号, 美山町, 福井市, 福井県, 910-2399, 日本</desc>
        <extensions>
          <road>国道158号</road>
          <quarter>美山町</quarter>
          <city>福井市</city>
          <province>福井県</province>
          <ISO3166-2-lvl4>JP-18</ISO3166-2-lvl4>
          <postcode>910-2399</postcode>
          <country>日本</country>
          <country_code>jp</country_code>
        </extensions>
      </trkpt>
      <trkpt lat="36.0010021" lon="136.3729262">
        <name>境寺町</name>
        <desc>境寺町, 福井市, 福井県, 日本</desc>
        <extensions>
          <quarter>境寺町</quarter>
          <city>福井市</city>
          <province>福井県</province>
          <ISO3166-2-lvl4>JP-18</ISO3166-2-lvl4>
          <country>日本</country>
          <country_code>jp</country_code>
        </extensions>
      </trkpt>
      <trkpt lat="35.9772421" lon="136.375426">
        <name>東天田町</name>
        <desc>東天田町, 福井市, 福井県, 日本</desc>
        <extensions>
          <quarter>東天田町</quarter>
          <city>福井市</city>
          <province>福井県</province>
          <ISO3166-2-lvl4>JP-18</ISO3166-2-lvl4>
          <country>日本</country>
          <country_code>jp</country_code>
        </extensions>
      </trkpt>
      <trkpt lat="35.9771727" lon="136.3707912">
        <name>西天田町</name>
        <desc>武生美山線, 西天田町, 福井市, 福井県, 910-2399, 日本</desc>
        <extensions>
          <road>武生美山線</road>
          <quarter>西天田町</quarter>
          <city>福井市</city>
          <province>福井県</province>
          <ISO3166-2-lvl4>JP-18</ISO3166-2-lvl4>
          <postcode>910-2399</postcode>
          <country>日本</country>
          <country_code>jp</country_code>
        </extensions>
      </trkpt>
      <trkpt lat="36.0046561" lon="136.3612318">
        <name>品ケ瀬町</name>
        <desc>品ケ瀬町, 福井市, 福井県, 910-2399, 日本</desc>
        <extensions>
          <quarter>品ケ瀬町</quarter>
          <city>福井市</city>
          <province>福井県</province>
          <ISO3166-2-lvl4>JP-18</ISO3166-2-lvl4>
          <postcode>910-2399</postcode>
          <country>日本</country>
          <country_code>jp</country_code>
        </extensions>
      </trkpt>
      <trkpt lat="36.0158169" lon="136.3517475">
        <name>小和清水町</name>
        <desc>国道158号, 市波町, 福井市, 福井県, 910-2222, 日本</desc>
        <extensions>
          <road>国道158号</road>
          <quarter>市波町</quarter>
          <city>福井市</city>
          <province>福井県</province>
          <ISO3166-2-lvl4>JP-18</ISO3166-2-lvl4>
          <postcode>910-2222</postcode>
          <country>日本</country>
          <country_code>jp</country_code>
        </extensions>
      </trkpt>
      <trkpt lat="36.0192707" lon="136.3546657">
        <name>獺ケ口町</name>
        <desc>篠尾勝山線, 高田町, 福井市, 福井県, 910-2151, 日本</desc>
        <extensions>
          <road>篠尾勝山線</road>
          <quarter>高田町</quarter>
          <city>福井市</city>
          <province>福井県</province>
          <ISO3166-2-lvl4>JP-18</ISO3166-2-lvl4>
          <postcode>910-2151</postcode>
          <country>日本</country>
          <country_code>jp</country_code>
        </extensions>
      </trkpt>
      <trkpt lat="36.017648" lon="136.3394523">
        <name>大久保町</name>
        <desc>篠尾勝山線, 高田町, 福井市, 福井県, 910-2151, 日本</desc>
        <extensions>
          <road>篠尾勝山線</road>
          <quarter>高田町</quarter>
          <city>福井市</city>
          <province>福井県</province>
          <ISO3166-2-lvl4>JP-18</ISO3166-2-lvl4>
          <postcode>910-2151</postcode>
          <country>日本</country>
          <country_code>jp</country_code>
        </extensions>
      </trkpt>
    </trkseg>
    <name>分割 1</name>
    <extensions>
      <stats>
        <totalDistanceKm>56.30</totalDistanceKm>
        <pointCount>41</pointCount>
      </stats>
    </extensions>
  </trk>
</gpx>